,church name,city,denomination,latitude,longitude,state,street address,zip code
0,BANNER FAITH MINISTRY,CHICAGO,NON CLASSIFIED AFFILIATION,41.744230000414234,-87.6636700000704,IL,8220 S ASHLAND AVE,60620
1,TRINITY EPISCOPAL CHURCH,CHICAGO,EPISCOPAL CHURCH,41.845569999955615,-87.6232100003412,IL,125 E 26TH ST,60616
2,SHRINE OF OUR LADY OF POMPEII,CHICAGO,ROMAN CATHOLIC CHURCH,41.87233999969129,-87.65792000020781,IL,1224 W LEXINGTON ST,60607
3,BLESSED ALOJZIJE CARDINAL,CHICAGO,ROMAN CATHOLIC CHURCH,41.99652999985966,-87.67766000040865,IL,6346 N RIDGE AVE,60660
4,GOOD NEWS COMMUNITY UCC,CHICAGO,UNITED CHURCH OF CHRIST,42.02078000029684,-87.67274000015084,IL,7649 N PAULINA ST,60626
5,ST MARK EPISCOPAL CHURCH,EVANSTON,EPISCOPAL CHURCH,42.045370000225375,-87.6881500003222,IL,1509 RIDGE AVE,60201
6,OUR LADY OF THE RIDGE PARISH,CHICAGO RIDGE,ROMAN CATHOLIC CHURCH,41.69565999990914,-87.77881000018135,IL,10811 RIDGELAND AVE,60415
7,FAITH LUTHERAN CHURCH,OAK LAWN,LUTHERAN CHURCH - MISSOURI SYNOD,41.71571999957837,-87.77472000042764,IL,9701 MELVINA AVE,60453
8,TRANSFORMATION BIBLE CHURCH,CHICAGO,INDEPENDENT BIBLE CHURCHES,41.895930000269345,-87.7731000003647,IL,5916 W RICE ST,60651
9,UNIVERSAL CHURCH,CHICAGO,UNITARIAN UNIVERSALIST ASSOCIATION,41.9536500000475,-87.75393000036917,IL,5040 W IRVING PARK RD,60641
10,LIGHT-THE WORLD CHR-GOD IN,CHICAGO,"CHURCH OF GOD (CLEVELAND, TN)",41.73344000015595,-87.66321000044115,IL,8828 S ASHLAND AVE,60620
11,JEANETTE'S HOUSE OF PRAYER INC,CHICAGO,NON CLASSIFIED AFFILIATION,41.76890999999654,-87.56702999963471,IL,6930 S SOUTH SHORE DR # 519,60649
12,AUGUSTINIANS OF THE MIDWEST,CHICAGO,ROMAN CATHOLIC CHURCH,41.7979100000465,-87.58506000011886,IL,5401 S CORNELL AVE,60615
13,INTERNATIONAL FELLOWSHIP,CHICAGO,CHRISTIAN - OTHER,41.88284999962781,-87.63270000000495,IL,30 N LA SALLE ST # 4300,60602
14,BOWMANVILLE BAPTIST CHURCH,CHICAGO,BAPTIST - OTHER,41.97778999990862,-87.69195999975415,IL,2478 W BERWYN AVE,60625
15,GOOD FOOD PROJECT,CHICAGO,NON CLASSIFIED AFFILIATION,41.97711000002653,-87.67426999966074,IL,5235 N RAVENSWOOD AVE # 10,60640
16,ST PASCAL,CHICAGO,ROMAN CATHOLIC CHURCH,41.95219999973028,-87.78148000010191,IL,3935 N MELVINA AVE,60634
17,MT PISGAH MINISTRY,EVANSTON,NON-DENOMINATIONAL CHURCHES,42.04870999956688,-87.69817999970718,IL,1815 CHURCH ST,60201
18,CHRISTIAN LIFE CTR CHICAGO,ELMWOOD PARK,NON CLASSIFIED AFFILIATION,41.91687999961232,-87.8093500002023,IL,2017 N 73RD CT,60707
19,FIRST CHURCH CHRISTIAN SCIENCE,PARK RIDGE,CHRISTIAN SCIENCE CHURCHES,42.0116700001704,-87.82774000020083,IL,330 W TOUHY AVE,60068
20,STRATFORD CHRISTIAN CTR CHURCH,CHICAGO,NON-DENOMINATIONAL CHURCHES,41.72683999976624,-87.66319999997995,IL,9152 S ASHLAND AVE,60620
21,ST COLUMBANUS CHURCH,CHICAGO,ROMAN CATHOLIC CHURCH,41.76556999975571,-87.61703999999594,IL,331 E 71ST ST,60619
22,CATHEDRAL MISSIONARY BAPT CHR,CHICAGO,PROGRESSIVE NATIONAL BAPTIST CONVENTION,41.806610000151466,-87.6239199998081,IL,4821 S WABASH AVE,60615
23,ST PAUL CME CHURCH,CHICAGO,CHRISTIAN METHODIST EPISCOPAL CHURCH,41.81018000020691,-87.62758999997845,IL,4644 S DEARBORN ST,60609
24,ST AUGUSTINES CTR AMER INDIANS,CHICAGO,EPISCOPAL CHURCH,41.96403000028431,-87.65519999978011,IL,4512 N SHERIDAN RD,60640
25,BETHANY BAPTIST CHURCH,EVANSTON,AMERICAN BAPTIST CHURCHES/USA,42.040469999990535,-87.68314000041067,IL,1225 ELMWOOD AVE,60202
26,YUGOSLAVIAN SEVENTH-DAY,CHICAGO,SEVENTH DAY ADVENTISTS,41.98312000018791,-87.72879999982013,IL,5608 N PULASKI RD,60646
27,FAR WEST CHURCH OF CHRIST,CHICAGO,CHRISTIAN & CHURCHES OF CHRIST,41.86638999959888,-87.72885999988904,IL,4134 W ROOSEVELT RD,60624
28,ST STANISLAUS BISHOP & MARTYR,CHICAGO,ROMAN CATHOLIC CHURCH,41.92235999961434,-87.76015999988402,IL,5352 W BELDEN ST,60639
29,CHICAGO BLUE ARMY,CHICAGO,NON CLASSIFIED AFFILIATION,41.93684000006601,-87.71104999965775,IL,3051 N CHRISTIANA AVE,60618
30,CHURCH OF CHICGOANS,CHICAGO,NON CLASSIFIED AFFILIATION,41.97596000005399,-87.767239999926,IL,5518 W GETTYSBURG ST,60630
31,SAINT HILARY CATHOLIC CHURCH,CHICAGO,ROMAN CATHOLIC CHURCH,41.98310000016494,-87.6980599995693,IL,5600 N FAIRFIELD AVE,60659
32,CONGREGATION LEV SOMEACH,CHICAGO, ,41.98273999975123,-87.71475999987405,IL,5555 N BERNARD ST,60625
33,CENTRAL MISSIONARY BAPTIST CHR,CHICAGO,BAPTIST MISSIONARY ASSOCIATION OF AMERICA,41.72732999987966,-87.6626400002358,IL,9155 S ASHLAND AVE,60620
34,SAINT CLOTILDE CATHOLIC CHURCH,CHICAGO,ROMAN CATHOLIC CHURCH,41.74138999984865,-87.61642000018281,IL,8430 S CALUMET AVE,60619
35,CENTRAL SYNAGOGUE,CHICAGO, ,41.89887000005052,-87.62877000043511,IL,15 W DELAWARE PL,60610
36,ST HEDWIG CATHOLIC CHURCH,CHICAGO,ROMAN CATHOLIC CHURCH,41.92202999968481,-87.68085999958925,IL,2226 N HOYNE AVE,60647
37,LINCOLN PARK PRESBYTERIAN CHR,CHICAGO,PRESBYTERIAN CHURCH (USA),41.92586999960088,-87.64423000021429,IL,600 W FULLERTON PKWY,60614
38,QASSAM MOSQUE CULTURAL CENTER,CHICAGO, ,41.77882000014296,-87.70693999988106,IL,3357 W 63RD ST,60629
39,AMOR DE DIOS UNITED METHODIST CHURCH,CHICAGO,UNITED METHODIST CHURCH,41.84870999996656,-87.70650999983661,IL,2356 S SAWYER AVE,60623
40,SAINT GILES CATHOLIC CHURCH,OAK PARK,ROMAN CATHOLIC CHURCH,41.90498999988864,-87.79166999967072,IL,1025 COLUMBIAN AVE,60302
41,ST CYRIL & METHODIUS PARISH,CHICAGO,POLISH NATIONAL CATHOLIC CHURCH,41.931489999763755,-87.770379999937,IL,5744 W DIVERSEY AVE,60639
42,CHURCH OF CHRIST PRESBYTERIAN,CHICAGO,UNITED CHURCH OF CHRIST,41.98804000044572,-87.7118299996547,IL,5846 N SPAULDING AVE,60659
43,EDISON PARK COMMUNITY CHR UCC,CHICAGO,UNITED CHURCH OF CHRIST,42.00188000016192,-87.81132000021779,IL,6675 N OKETO AVE,60631
44,GOOD TEMPLE MSSNRY BAPT CHR,CHICAGO,BAPTIST MISSIONARY ASSOCIATION OF AMERICA,41.72515999963434,-87.60495000004244,IL,9314 S COTTAGE GROVE AVE,60619
45,BIBLEWAY CHURCH OF CHICAGO,CHICAGO,NON-DENOMINATIONAL CHURCHES,41.721740000200896,-87.63618999996851,IL,502 W 95TH ST,60628
46,GREATER TABERNACLE MSSNRY BAPT,CHICAGO,BAPTIST - OTHER,41.7177699996858,-87.65685999988904,IL,1339 W 97TH ST,60643
47,UNITED VOTERS FOR TRUTH-CHANGE,CHICAGO,NON CLASSIFIED AFFILIATION,41.76585000007748,-87.68659999989006,IL,7019 S MAPLEWOOD AVE,60629
48,MUHAMMAD ISLAMIC FOUNDATION,CHICAGO, ,41.89248000035178,-87.62254999958276,IL,207 E OHIO ST,60611
49,ST SYMPHOROSA CATHOLIC CHURCH,CHICAGO,ROMAN CATHOLIC CHURCH,41.78030999960686,-87.77107000028025,IL,6135 S AUSTIN AVE,60638
50,NEW ST JOHN COMMUNITY BAPT CHR,CHICAGO,BAPTIST - OTHER,41.865310000156455,-87.71695999970416,IL,1230 S MILLARD AVE,60623
51,REFRESHING SPRING MSSNRY CHR,CHICAGO,BAPTIST - OTHER,41.87481000028134,-87.74531999991802,IL,400 S CICERO AVE,60644
52,ST GILES PARISH,OAK PARK,ROMAN CATHOLIC CHURCH,41.90498999988864,-87.79166999967072,IL,1025 COLUMBIAN AVE,60302
53,SOUTHEAST CONGREGATION,CHICAGO,JEHOVAH'S WITNESSES,41.71659000012846,-87.55967000017034,IL,9837 S TORRENCE AVE,60617
54,GREATER DIVINE MINISTRY BAPT,CHICAGO,BAPTIST MISSIONARY ASSOCIATION OF AMERICA,41.76542999959486,-87.62348999976365,IL,45 E 71ST ST,60619
55,MASJID ROSCOE,CHICAGO, ,41.943400000409724,-87.65507999964223,IL,1017 W ROSCOE ST,60657
56,CRAWFORD BIBLE CHURCH,CHICAGO,BAPTIST - OTHER,41.83674000015094,-87.72840999982162,IL,4155 W 31ST ST,60623
57,LIGHTHOUSE GOSPEL MSSNRY BAPT,CHICAGO,BAPTIST - OTHER,41.872189999968555,-87.70117999955727,IL,3004 W LEXINGTON ST,60612
58,NORTHWEST FREEWILL BAPTIST CHURCH,CHICAGO,FREE WILL BAPTISTS,41.93162999992461,-87.75984000041564,IL,5318 W DIVERSEY AVE,60639
59,MIDWEST ASSOCIATION OF SHIA,CHICAGO, ,41.967770000085466,-87.73745999987904,IL,4353 W LAWRENCE AVE,60630
60,AGUDATH ISRAEL-WEST ROGERS PRK,CHICAGO,NON CLASSIFIED AFFILIATION,42.004690000243386,-87.70018000020679,IL,2801 W PRATT BLVD,60645
61,TO GOD BE THE GLORY CHRISTIAN,CHICAGO,FULL GOSPEL FELLOWSHIP,41.690179999907116,-87.67262000001296,IL,11160 S LONGWOOD DR,60643
62,SAINT VINCENT FERRER CATHOLIC CHURCH,RIVER FOREST,ROMAN CATHOLIC CHURCH,41.90742000043275,-87.81397000011538,IL,1530 JACKSON AVE,60305
63,IMMANUEL UNITED CHURCH OF CHRIST,EVERGREEN PARK,UNITED CHURCH OF CHRIST,41.714589999628856,-87.68403000008442,IL,9815 S CAMPBELL AVE,60805
64,OUR LADY GATE OF HEAVEN PARISH,CHICAGO,ROMAN CATHOLIC CHURCH,41.71540000010998,-87.56728999993351,IL,2330 E 99TH ST,60617
65,SAINT HENRY CATHOLIC CHURCH,CHICAGO,ROMAN CATHOLIC CHURCH,41.99736999992558,-87.68193000036916,IL,6335 N HOYNE AVE,60659
66,JAMES TEMPLE CHURCH OF GOD,CHICAGO,CHURCH OF GOD - OTHER,41.86079999992012,-87.72904000009589,IL,1456 S KEDVALE AVE,60623
67,PILGRIM REST MISSIONARY CHURCH,CHICAGO,BAPTIST - OTHER,41.871770000385254,-87.69876000037368,IL,736 S FRANCISCO AVE,60612
68,MT CARMEL HOLINESS CHURCH,CHICAGO,NON-DENOMINATIONAL CHURCHES,41.88220999979171,-87.74556000019379,IL,4800 W WASHINGTON BLVD,60644
69,LAMON AVENUE BAPTIST CHURCH,CHICAGO,SOUTHERN BAPTIST CONVENTION,41.92779999957037,-87.74792999976961,IL,4851 W WRIGHTWOOD AVE,60639
70,IGLESIA CRISTIANA CASA-ORACION,CHICAGO,NON CLASSIFIED AFFILIATION,41.936920000157954,-87.69844000000597,IL,2814 W NELSON ST,60618
71,ROSELAND BIBLE CHURCH,CHICAGO,PLYMOUTH BRETHREN,41.692259999599344,-87.62921999960327,IL,233 W 111TH ST,60628
72,HARVEST BIBLE CHAPEL PALOS,PALOS HILLS,SOUTHERN BAPTIST CONVENTION,41.68699999985017,-87.81854999998245,IL,8015 W 111TH ST,60465
73,ALLEN WARD AME CHURCH,CHICAGO,AFRICAN METHODIST EPISCOPAL CHURCH,41.7252300001644,-87.6054299996947,IL,9315 S EVANS AVE,60619
74,OUR LADY GATE OF HEAVEN CHURCH,CHICAGO,ROMAN CATHOLIC CHURCH,41.71532000001804,-87.56720999984157,IL,2338 E 99TH ST,60617
75,ST JOHN CANTIUS PARISH,CHICAGO,ROMAN CATHOLIC CHURCH,41.89698000012697,-87.65308999960376,IL,825 N CARPENTER ST,60642
76,CITY VINEYARD CHRISTIAN FELLOWSHIP,CHICAGO,ASSOCIATION OF VINEYARD CHURCHES,41.95311000032632,-87.66941999993304,IL,3918 N ASHLAND AVE,60613
77,CHURCH OF CHICAGO,OAK LAWN,EVANGELICAL - OTHER,41.71078999975873,-87.73144000015583,IL,10000 S KOSTNER AVE,60453
78,IGLESIA SANTA CRUZ,CHICAGO,EVANGELICAL LUTHERAN CHURCH IN AMERICA,41.77369999965532,-87.71988000036168,IL,6545 S SPRINGFIELD AVE,60629
79,ST MARY OF CZESTOCHOWA,CICERO,ROMAN CATHOLIC CHURCH,41.83801999982319,-87.74556999975567,IL,3010 S 48TH CT,60804
80,SPIRIT OF TRUTH CHURCH,CHICAGO,NATIONAL BAPTIST CONVENTION OF AMERICA,41.87337999998704,-87.71264000013588,IL,3447 W HARRISON ST,60624
81,PERFORMING CHRIST MINISTRIES,CHICAGO,NON CLASSIFIED AFFILIATION,41.886940000280845,-87.75576999978563,IL,5209 W LAKE ST,60644
82,KINGDOM BUILDERS CHURCH,CHICAGO,CHRISTIAN - OTHER,41.908989999988535,-87.77214000016085,IL,5835 W NORTH AVE,60639
83,ST HILARY PARISH,CHICAGO,ROMAN CATHOLIC CHURCH,41.98525000038728,-87.71381000013139,IL,5601 N CALIFORNIA,60659
84,HOLY TRINITY LUTHERAN CHURCH,GLENVIEW,EVANGELICAL LUTHERAN CHURCH IN AMERICA,42.065989999638816,-87.81561000020133,IL,2328 CENTRAL RD,60025
85,FAMILY OF GOD CHURCH OF GOD IN CHRIST,CHICAGO,CHURCH OF GOD IN CHRIST,41.742610000351306,-87.64423000021429,IL,8324 S HALSTED ST,60620
86,CHURCH OF CHRIST,CHICAGO,CHRISTIAN & CHURCHES OF CHRIST,41.75973000023936,-87.66282000044265,IL,1514 W 74TH ST,60636
87,GREATER MT OLIVE,CHICAGO,BAPTIST - OTHER,41.77798000007698,-87.65351000008638,IL,6354 S MAY ST,60621
88,PILGRIM BAPTIST CHURCH,CHICAGO,BAPTIST - OTHER,41.834719999628305,-87.62196999981558,IL,3300 S INDIANA AVE,60616
89,HOLY FAMILY CATHOLIC CHURCH,CHICAGO,ROMAN CATHOLIC CHURCH,41.8672299996648,-87.6540400002458,IL,1080 W ROOSEVELT RD,60608
90,THE SALVATION ARMY-CHICAGO HARBOR LIGHT,CHICAGO,SALVATION ARMY,41.87984999977772,-87.66519000001847,IL,1515 W MONROE ST,60607
91,SAINT MICHAEL IN OLD TOWN CATHOLIC CHRCH,CHICAGO,ROMAN CATHOLIC CHURCH,41.911920000207886,-87.64090000043461,IL,1633 N CLEVELAND AVE,60614
92,ST PAUL COPTIC ORTHODOX MSSN,CHICAGO,EASTERN ORTHODOX - OTHER,41.92688999987365,-87.69417999960729,IL,2500 N TALMAN AVE,60647
93,SAINT JEROME CATHOLIC CHURCH,CHICAGO,ROMAN CATHOLIC CHURCH,42.008949999742754,-87.67255999994399,IL,1709 W LUNT AVE,60626
94,FIRST CONGREGATIONAL CHURCH,EVANSTON,UNITED CHURCH OF CHRIST,42.04709000040327,-87.6869299998196,IL,1445 HINMAN AVE,60201
95,BETHESDA CHURCH,CHICAGO,EVANGELICAL CHRISTIAN CHURCH,41.924640000435716,-87.74096000030374,IL,4538 W FULLERTON AVE,60639
96,ST LADISLAUS CHURCH,CHICAGO,CONVENTS/RECTORIES/MONASTERIES,41.94186000043874,-87.76048000025179,IL,5345 W ROSCOE ST,60641
97,HOLY TEMPLE NON-DENOMINATIONAL,CHICAGO,NON-DENOMINATIONAL CHURCHES,41.73896000020392,-87.653779999947,IL,8518 S RACINE AVE,60620
98,WELLSPRING CHRISTIAN MNSTRS,CHICAGO,EVANGELICAL - OTHER,41.75195999985414,-87.55647000009037,IL,2810 E 79TH ST,60649
99,ELLIS AVENUE,CHICAGO,SOUTHERN BAPTIST CONVENTION,41.803949999792735,-87.60117999975716,IL,5001 S ELLIS AVE,60615
100,KINGDOM OF GOD MSSNRY BAPT CHR,CHICAGO,BAPTIST - OTHER,41.80320999984167,-87.67073999965123,IL,1818 W 50TH ST,60609
101,HYDE PARK UNION CHURCH,CHICAGO,AMERICAN BAPTIST CHURCHES/USA,41.793270000110454,-87.59659999989003,IL,5600 S WOODLAWN AVE,60637
102,LAKEVIEW SEVENTH-DAY ADVENTIST CHURCH,CHICAGO,SEVENTH DAY ADVENTISTS,41.943400000409724,-87.68661999991303,IL,2318 W ROSCOE ST,60618
103,NEW COVENANT CHRIST FELLOWSHIP,CHICAGO,NON CLASSIFIED AFFILIATION,41.96957999991713,-87.68871000006641,IL,4839 N WESTERN AVE,60625
104,BOWMANVILLE BAPTIST CHURCH,CHICAGO,CONSERVATIVE BAPTIST ASSOCIATION,41.97768999979371,-87.69242000028277,IL,5301 N LINCOLN AVE,60625
105,NEW GALILEE MISSIONARY BAPTIST CHURCH,CHICAGO,BAPTIST - OTHER,41.88881999974325,-87.75502999983456,IL,431 N LARAMIE AVE,60644
106,NEW SONG CHURCH OF THE NAZARENE,NORRIDGE,CHURCH OF THE NAZARENE,41.95781000033128,-87.8174099995718,IL,4256 N ORIOLE AVE,60706
107,SAINT ISAAC JOGUES CATHOLIC CHURCH,NILES,ROMAN CATHOLIC CHURCH,42.05459999959038,-87.83037000007539,IL,8149 W GOLF RD,60714
108,NEW ORIGINAL CHURCH OF GOD,CHICAGO,CHURCH OF GOD IN CHRIST,41.753490000263355,-87.581779999947,IL,1750 E 78TH ST,60649
109,WORLD HARVEST FAMILY CTR,CHICAGO,NON CLASSIFIED AFFILIATION,41.78705999971925,-87.66092999961973,IL,1434 W 59TH ST,60636
110,PILSEN MONTESSORI,CHICAGO,NON CLASSIFIED AFFILIATION,41.85283000020439,-87.6761200004376,IL,2003 W 21ST PL,60608
111,RAVENSWOOD FELLOWSHIP UNITED,CHICAGO,UNITED METHODIST CHURCH,41.963810000031515,-87.67202999978463,IL,4511 N HERMITAGE AVE,60640
112,ST GEORGE ANTIOCH ORTHODOX CHR,CICERO,ANTIOCHIAN ORTHODOX CHRISTIAN,41.86475000041224,-87.77565000014738,IL,1220 S 60TH CT,60804
113,PROGRESSIVE BEULAH PENTECOSTAL,CHICAGO,UNITED PENTECOSTAL CHURCH,41.735680000032005,-87.65607999989203,IL,1301 W 87TH ST,60620
114,SAINT BRONISLAVA CATHOLIC CHURCH,CHICAGO,ROMAN CATHOLIC CHURCH,41.73699999975025,-87.5612999997951,IL,8708 S COLFAX AVE,60617
115,JOY MISSION HOUSE OF PRAYER BAPTIST CHR,CHICAGO, ,41.77127000001053,-87.64419999973018,IL,6743 S HALSTED ST,60621
116,WEST POINT MISSIONARY BAPT CHR,CHICAGO,NATIONAL BAPTIST CONVENTION-USA,41.82937000022537,-87.61010000011487,IL,3566 S COTTAGE GROVE AVE,60653
117,CITY HILL CHURCH,CHICAGO,NON CLASSIFIED AFFILIATION,41.856599999590344,-87.65726999991051,IL,1847 S ALLPORT ST # 1,60608
118,CHURCH OF LIVING GOD,OAK LAWN,CHURCH OF THE LIVING GOD,41.71287000035028,-87.75730000019479,IL,9841 S 55TH AVE,60453
119,SHILOH MISSIONARY BAPTIST CHR,SUMMIT ARGO,BAPTIST MISSIONARY ASSOCIATION OF AMERICA,41.77576999978572,-87.81302999993449,IL,7661 W 63RD PL,60501
120,CHURCH OF CHRIST,BURBANK,CHRISTIAN & CHURCHES OF CHRIST,41.7428600001889,-87.7509699996657,IL,8230 LARAMIE AVE,60459
121,ALPHA & OMEGA BAPTIST CHURCH,CICERO,INDEPENDENT BAPTIST CHURCHES,41.84585000027732,-87.75929999979513,IL,5406 W 25TH ST,60804
122,NEW PHILADELPHIA CHRISTIAN MINISTRIES,CHICAGO,CHURCH OF GOD IN CHRIST,41.87744000015596,-87.74494000038067,IL,215 S CICERO AVE,60644
123,NEW GREATER TRUE LIGHT,CHICAGO,SOUTHERN BAPTIST CONVENTION,41.90010999967677,-87.76103000043412,IL,5401 W THOMAS ST,60651
124,ST VIATOR CHURCH,CHICAGO,ROMAN CATHOLIC CHURCH,41.94644000030581,-87.7316699999705,IL,4170 W ADDISON ST,60641
125,FIRST ROMANIAN FUNDAMENTALIST,NILES,ROMANIAN ORTHODOX EPISCOPATE,42.014230000414216,-87.79069999990503,IL,7280 N CALDWELL AVE,60714
126,CONCORD BAPTIST CHURCH,CHICAGO,PROGRESSIVE NATIONAL BAPTIST CONVENTION,41.77987000000053,-87.59419000026827,IL,6319 S KIMBARK AVE,60637
127,CATHEDRAL OF LOVE M B CH,CHICAGO,BAPTIST - OTHER,41.75862000031282,-87.6161500003222,IL,360 E 75TH ST,60619
128,METROPOLITAN COMMUNITY CHURCH,CHICAGO,METROPOLITAN COMMUNITY CHURCHES,41.94872999978969,-87.64965000014735,IL,3656 N HALSTED ST,60613
129,STONE TEMPLE BAPTIST CHURCH,CHICAGO,BAPTIST - OTHER,41.86317999995708,-87.71629999984509,IL,3622 W DOUGLAS BLVD,60623
130,NEW RISING SUN MB CHURCH LLC,CHICAGO,NON CLASSIFIED AFFILIATION,41.87553000020938,-87.74486999985055,IL,349 S CICERO AVE,60644
131,LIFE OF PEACE INTL MINISTRIES,CHICAGO,BAPTIST - OTHER,41.90960000023989,-87.77294000018082,IL,5902 W NORTH AVE,60639
132,PROTESTANT NUTRITION CHURCH,CHICAGO,NON CLASSIFIED AFFILIATION,41.975630000124454,-87.80674000035071,IL,5201 N HARLEM AVE,60656
133,ZION LUTHERAN CHURCH,CHICAGO,LUTHERAN CHURCH - MISSOURI SYNOD,41.71378999960882,-87.6571699997956,IL,9901 S WINSTON AVE,60643
134,FIRST NEW MT OLIVE MSSNRY BAPT,CHICAGO,SOUTHERN BAPTIST CONVENTION,41.7152100003413,-87.566899999935,IL,2349 E 99TH ST,60617
135,CONGREGATIONAL-JEHOVAH WITNESS,CHICAGO,JEHOVAH'S WITNESSES,41.7657000003548,-87.64480000041965,IL,7046 S HALSTED ST,60621
136,IGLESIA BAUTISTA ERIE,CHICAGO,SOUTHERN BAPTIST CONVENTION,41.89283999986617,-87.6820400000459,IL,2201 W ERIE ST,60612
137,MICHAEL ARCHANGEL CHURCH,BURBANK,ORTHODOX CHURCH IN AMERICA,41.74148999996356,-87.74743000009437,IL,5037 W 83RD ST,60459
138,ASHBURN LUTHERAN CHURCH,CHICAGO,EVANGELICAL LUTHERAN CHURCH IN AMERICA,41.74216999984566,-87.70644000020582,IL,3345 W 83RD ST,60652
139,JEHOVAH WITNESSES CCERO CONGREGATION,BERWYN,JEHOVAH'S WITNESSES,41.817300000294836,-87.7928300001044,IL,4108 OAK PARK AVE,60402
140,MT EBENEZER BAPTIST CHURCH,CHICAGO,NATIONAL BAPTIST CONVENTION-USA,41.89324000032582,-87.71598999993853,IL,3555 W HURON ST,60624
141,KINGDOM HALL OF JEHOVAHS WITNESSES,CHICAGO,JEHOVAH'S WITNESSES,41.92737000042524,-87.76578999960878,IL,2555 N CENTRAL AVE,60639
142,SAINT ROBERT BELLARMINE CATHOLIC CHURCH,CHICAGO,ROMAN CATHOLIC CHURCH,41.965040000095996,-87.77780999993149,IL,4646 N AUSTIN AVE,60630
143,FAITH COMMUNITY REFORMED CHR,BERWYN,REFORMED CHURCH IN AMERICA,41.81901999957336,-87.79359999964021,IL,6825 40TH ST,60402
144,NEW LIFE SOUTHSIDE,CHICAGO,NON CLASSIFIED AFFILIATION,41.752799999920114,-87.59953999967121,IL,1021 E 78TH ST,60619
145,UNITED FAITH TEMPLE,CHICAGO,CHRISTIAN & MISSIONARY ALLIANCE,41.78452000039778,-87.66521999960327,IL,6005 S MARSHFIELD AVE,60636
146,ARCHDIOCESE OF CHICAGO PASTORA,CHICAGO,NON CLASSIFIED AFFILIATION,41.830759999574354,-87.60747999980214,IL,3525 S LAKE PARK AVE,60653
147,GREATER KING DAVID BAPTIST CHR,CHICAGO,BAPTIST - OTHER,41.804999999650306,-87.61901000001143,IL,4921 S PRAIRIE AVE,60615
148,UNIVERSAL CHURCH AUTO,CHICAGO,UNITARIAN UNIVERSALIST ASSOCIATION,41.84985000037727,-87.69478999985859,IL,2301 S CALIFORNIA AVE,60608
149,UKRAINIAN CULTURAL CTR,CHICAGO,ROMAN CATHOLIC CHURCH,41.89552000024787,-87.68386999990054,IL,2247 W CHICAGO AVE,60622
150,UNITY LUTHERAN CHURCH,CHICAGO,EVANGELICAL LUTHERAN CHURCH IN AMERICA,41.980129999899646,-87.66038999989854,IL,1212 W BALMORAL AVE,60640
151,RAYON OF GOD INC,EVANSTON,NON CLASSIFIED AFFILIATION,42.02006999993063,-87.68257999976714,IL,742 DOBSON ST # 1E,60202
152,QUEEN OF ALL SAINTS CHURCH,CHICAGO,ROMAN CATHOLIC CHURCH,41.994760000073995,-87.74308999960374,IL,6280 N SAUGANASH AVE,60646
153,SAINT CYPRIAN CATHOLIC CHURCH,RIVER GROVE,ROMAN CATHOLIC CHURCH,41.926590000428234,-87.83043000014436,IL,2601 CLINTON ST,60171
154,NEW PARADISE MB CHURCH,CHICAGO,NATIONAL BAPTIST CONVENTION OF AMERICA,41.78227000006052,-87.60408999995349,IL,6643 S EVANS AVE,60637
155,JEHOVAHS WITNESSES IN CHICAGO,CHICAGO,JEHOVAH'S WITNESSES,41.787689999993574,-87.62744000025577,IL,48 W 59TH ST,60621
156,LAKE SHORE CHURCH,CHICAGO,ASSEMBLIES OF GOD,41.88115000037226,-87.64649000011337,IL,733 W MADISON ST,60661
157,ST JOSEPH CHURCH,CHICAGO,ROMAN CATHOLIC CHURCH,41.90234999955288,-87.63692999991952,IL,1107 N ORLEANS ST,60610
158,PLAIN TALK MISSIONARY BAPTIST,CHICAGO,BAPTIST MISSIONARY ASSOCIATION OF AMERICA,41.86638999959888,-87.72908999970366,IL,4136 W ROOSEVELT RD,60624
159,NEW MISSION CHURCH OF GOD IN CHRIST,CHICAGO,CHURCH OF GOD IN CHRIST,41.8705899999286,-87.74246999979061,IL,4700 W POLK ST,60644
160,OLD LANDMARK CHURCH,CHICAGO,NON CLASSIFIED AFFILIATION,41.90182999985467,-87.76851999959825,IL,5707 W DIVISION ST,60651
161,GRACE EVANGELICAL COVENANT CHR,CHICAGO,EVANGELICAL COVENANT CHURCH,41.95742999989466,-87.71900999981159,IL,4201 N MONTICELLO AVE,60618
162,SKOKIE VALLEY SYNAGOGUE,SKOKIE, ,42.04168999959387,-87.7191099999265,IL,8825 E PRAIRIE RD,60076
163,DAVIS CHAPEL DEVELOPMENT INC,SUMMIT ARGO,NON CLASSIFIED AFFILIATION,41.786560000044005,-87.81046000012884,IL,5735 S ARCHER RD,60501
164,ST ALBAN'S EPISCOPAL CHURCH,CHICAGO,EPISCOPAL CHURCH,41.994280000421725,-87.8049600001039,IL,6240 N AVONDALE AVE,60631
165,PRAISE TABERNACLE DELIVERANCE,CHICAGO,SOUTHERN BAPTIST CONVENTION,41.72238000003705,-87.55068000018184,IL,9511 S COMMERCIAL AVE,60617
166,CHRIST UNITY EVANGELICAL CHURCH,CHICAGO,NON-DENOMINATIONAL CHURCHES,41.78399000023836,-87.62022000005294,IL,208 E 61ST ST,60637
167,SAINT GERALD CATHOLIC CHURCH,OAK LAWN,ROMAN CATHOLIC CHURCH,41.72311000042623,-87.75933999984107,IL,9310 S 55TH CT,60453
168,NEWNESS OF LIFE FELLOWSHIP CHR,CHICAGO,NON CLASSIFIED AFFILIATION,41.7516299999246,-87.7015899995788,IL,7762 S TROY ST,60652
169,SAINT ANTHONY OF PADUA CATHOLIC CHR,CICERO,ROMAN CATHOLIC CHURCH,41.859950000292315,-87.74858999962873,IL,1510 S 49TH CT,60804
170,PEOPLE'S CHURCH OF THE HARVEST,CHICAGO,CHURCH OF GOD IN CHRIST,41.87610999997656,-87.71524999998746,IL,3570 W 5TH AVE,60624
171,HERMOSA COMMUNITY CHURCH,CHICAGO,NON CLASSIFIED AFFILIATION,41.91180000007,-87.73214999962272,IL,4218 W WABANSIA AVE,60639
172,FIRST SPANISH UNITED CHR-CHRST,CHICAGO,NON CLASSIFIED AFFILIATION,41.92859000002852,-87.71198999983858,IL,3322 W WRIGHTWOOD AVE,60647
173,SHILOH SEVENTH-DAY ADVENTIST,CHICAGO,SEVENTH DAY ADVENTISTS,41.76737000002555,-87.62186000013884,IL,7000 S MICHIGAN AVE,60637
174,LIFE CHURCH MIDWEST,CHICAGO,ASSEMBLIES OF GOD,41.83087000015041,-87.69066999962075,IL,2600 W 35TH ST # 322,60632
175,UKRAINIAN AUTOCEPHOLOUS,CHICAGO,UKRANIAN ORTHODOX CHURCH,41.89765000044724,-87.69464999969767,IL,900 N WASHTENAW AVE,60622
176,ST MICHAEL'S CTR,CHICAGO,ROMAN CATHOLIC CHURCH,41.912990000088485,-87.64000000029972,IL,458 W EUGENIE ST,60614
177,SAINT MATTHIAS CATHOLIC CHURCH,CHICAGO,ROMAN CATHOLIC CHURCH,41.97056999970579,-87.68721999970319,IL,2310 W AINSLIE ST,60625
178,THE SALVATION ARMY-MIDWAY CITADEL,CHICAGO,SALVATION ARMY,41.807789999708746,-87.75026999976063,IL,5036 W 47TH ST,60638
179,ST MEL HOLY GHOST CMNTY MNSTRY,CHICAGO,ROMAN CATHOLIC CHURCH,41.8821099996768,-87.7530399997961,IL,116 N LECLAIRE AVE,60644
180,ROCK SALVATION EVANGELICAL FREE CHURCH,CHICAGO, ,41.882730000389245,-87.76543999965622,IL,118 N CENTRAL AVE,60644
181,HOPE COMMUNITY CHURCH,CHICAGO, ,41.89685000042721,-87.77259000022826,IL,5900 W IOWA ST,60651
182,NEIGHBORHOOD CHAPEL,CHICAGO,CHRISTIAN REFORMED CHURCH,41.9176900000935,-87.70472000002792,IL,3058 W ARMITAGE AVE,60647
183,CHRIST'S OASIS MINISTRIES,CHICAGO,NON-DENOMINATIONAL CHURCHES,41.93696999976572,-87.7673099995568,IL,3101 N PARKSIDE AVE,60634
184,TRINITY LUTHERAN CHURCH,EVANSTON,EVANGELICAL LUTHERAN CHURCH IN AMERICA,42.05477000023535,-87.71966000010889,IL,3637 GOLF RD,60203
185,NEW TESTAMENT MEMORIAL CHURCH,CHICAGO,NON CLASSIFIED AFFILIATION,41.758919999758234,-87.59374999976262,IL,1246 E 75TH ST,60619
186,SOUTH SHORE COMMUNITY UCC,CHICAGO,UNITED CHURCH OF CHRIST,41.76059000032831,-87.56593999973114,IL,7401 S YATES BLVD,60649
187,SOUTHWEST CHURCH OF CHRIST,CHICAGO,UNITED CHURCH OF CHRIST,41.80131999991812,-87.65921999990303,IL,1359 W 51ST ST,60609
188,BENEDECTINESCHRIST THE KING,CHICAGO,ANGLICAN - OTHER,41.962680000082,-87.66274000035071,IL,4432 N MALDEN ST,60640
189,EPIPHANY CATHOLIC CHURCH,CHICAGO,ROMAN CATHOLIC CHURCH,41.84536999972573,-87.72980999963175,IL,2524 S KEELER AVE,60623
190,ORIGINAL PROVIDENCE BAPTIST,CHICAGO,NATIONAL BAPTIST CONVENTION-USA,41.88926999981072,-87.76301000001143,IL,515 N PINE AVE,60644
191,WELLS TEMPLE OF DELIVERANCE,CHICAGO,DELIVERANCE CHURCHES,41.88080999998158,-87.69538000008691,IL,2739 W MADISON ST,60612
192,HUNGARIAN BAPTIST CHURCH,CHICAGO,SOUTHERN BAPTIST CONVENTION,41.96296000040377,-87.77195999995399,IL,5757 W WINDSOR AVE,60630
193,SEVENTH-DAY ADVENTIST N SHORE,CHICAGO,SEVENTH DAY ADVENTISTS,41.9765199997982,-87.69930000009487,IL,5220 N CALIFORNIA AVE,60625
194,CALVARY REDEMPTION CTR,SKOKIE,PENTECOSTAL - OTHER,42.04139000014845,-87.74737000002546,IL,8820 SKOKIE BLVD # 147,60077
195,JERUSALEM LUTHERAN CHURCH,MORTON GROVE,WISCONSIN EVANGELICAL LUTHERAN,42.03864999969778,-87.78213999996098,IL,8637 FERNALD AVE,60053
196,ST VINCENT FERRER PARISH,RIVER FOREST,ROMAN CATHOLIC CHURCH,41.90742000043275,-87.81397000011538,IL,1530 JACKSON AVE,60305
197,NEW FAITH MISSIONARY BAPTIST,CHICAGO,BAPTIST MISSIONARY ASSOCIATION OF AMERICA,41.74134999980271,-87.6441399996612,IL,8400 S HALSTED ST,60620
198,TREE OF LIFE MISSIONARY BAPTIST CHURCH,CHICAGO, ,41.726099999815176,-87.59626000039867,IL,1124 E 93RD ST,60619
199,ALMIGHTY NATIONS OF MOORS,CHICAGO,NON CLASSIFIED AFFILIATION,41.748989999588844,-87.60556000029374,IL,8010 S COTTAGE GROVE AVE,60619
200,GLORIOUS LIGHT CHURCH,CHICAGO,NON CLASSIFIED AFFILIATION,41.876800000319804,-87.63817000044514,IL,PO BOX 805927,60680
201,URBAN VILLAGE CHR RIVER NORTH,CHICAGO,UNITED METHODIST CHURCH,41.90053000015945,-87.63744999961773,IL,1000 N ORLEANS ST,60610
202,CHRISTIAN FELLOWSHIP FOR ALL NATIONS,CHICAGO,NON-DENOMINATIONAL CHURCHES,41.96865999975921,-87.65523999982611,IL,4750 N SHERIDAN RD,60640
203,TENRIKYO WASHINGTON CHURCH,CHICAGO,SOUTHERN BAPTIST CONVENTION,41.99186999990064,-87.69302000007292,IL,6049 N MAPLEWOOD AVE,60659
204,MT GREENWOOD LUTHERAN CHURCH,CHICAGO,LUTHERAN CHURCH - MISSOURI SYNOD,41.6951200001879,-87.70697000036517,IL,10901 S TRUMBULL AVE,60655
205,FIRST CHRISTIAN CHARISMATIC,CHICAGO,CHURCH OF GOD - OTHER,41.78009000025338,-87.70781999999298,IL,3358 W 62ND PL,60629
206,CHICAGO-LOWELL CHURCH OF GOD,CHICAGO,"CHURCH OF GOD (ANDERSON, IN)",41.91541000017145,-87.73480000041963,IL,1901 N LOWELL AVE,60639
207,YOUNG ISRAEL OF SKOKIE,SKOKIE, ,42.041069999780746,-87.7220800001918,IL,3740 N DEMPSTER ST,60076
208,EGLISE ADVENTISTE DE BETHLEHEM,CHICAGO,SEVENTH DAY ADVENTISTS,41.73093000041922,-87.64308000024175,IL,750 W 90TH ST,60620
209,ST PAUL MISSIONARY BAPTIST CHR,CHICAGO,BAPTIST MISSIONARY ASSOCIATION OF AMERICA,41.767719999978056,-87.64238000033669,IL,6954 S UNION AVE,60621
210,PROGRESSIVE BAPTIST CHURCH,CHICAGO,PROGRESSIVE NATIONAL BAPTIST CONVENTION,41.827839999816206,-87.63179000030823,IL,3658 S WENTWORTH AVE,60609
211,FIRST PENTECOSTAL CHR CHICAGO,CHICAGO,PENTECOSTAL CHURCH OF GOD,41.79996000015393,-87.66514000041064,IL,5146 S ASHLAND AVE,60609
212,SAINT SIMON THE APOSTLE CATHOLIC CHURCH,CHICAGO,ROMAN CATHOLIC CHURCH,41.799929999669814,-87.69363000032422,IL,5157 S CALIFORNIA AVE,60632
213,DIOCESE OF SAINT NICHOLAS,CHICAGO,ROMAN CATHOLIC CHURCH,41.8964600004287,-87.68380000026974,IL,2245 W RICE ST,60622
214,SAINT VINCENT DE PAUL CATHOLIC CHURCH,CHICAGO,ROMAN CATHOLIC CHURCH,41.92214999982269,-87.65388999962374,IL,1010 W WEBSTER AVE,60614
215,GRANVILLE AVE UNITED METHODIST,CHICAGO,UNITED METHODIST CHURCH,41.994410000121434,-87.66315999993401,IL,1307 W GRANVILLE AVE,60660
216,LIGHT-LIBERTY CHR-GOD IN CHRST,OAK PARK,PENTECOSTAL - OTHER,41.88241999958336,-87.77503999989602,IL,2 WASHINGTON BLVD,60302
217,NEW INSPIRATIONAL MISSIONARY,CHICAGO,BAPTIST - OTHER,41.901760000223874,-87.77136999972566,IL,5825 W DIVISION ST,60651
218,2ND CHURCH OF CHRIST SCIENTIST,EVANSTON,CHRISTIAN SCIENCE CHURCHES,42.06706999998056,-87.71615000012235,IL,2715 HURD AVE,60201
219,WEST 95 OAKDALE MSSNRY BAPT,CHICAGO,BAPTIST MISSIONARY ASSOCIATION OF AMERICA,41.72192000040775,-87.63631000010639,IL,9450 S NORMAL AVE,60620
220,ZION TEMPLE MSSNRY BAPT CHR,CHICAGO,SOUTHERN BAPTIST CONVENTION,41.76679999982019,-87.64234999985257,IL,7010 S UNION AVE,60621
221,HOLY VICTORY,CHICAGO,NON CLASSIFIED AFFILIATION,41.78978999970877,-87.65997999987707,IL,5718 S LOOMIS BLVD,60636
222,ANOINTED LIFE DELIVERANCE CTR,CHICAGO,PENTECOSTAL - OTHER,41.79370999971678,-87.64351000028626,IL,717 W GARFIELD BLVD,60621
223,KINGDOM HALL OF JEHOVAHS WITNESSES,CHICAGO,JEHOVAH'S WITNESSES,41.95541000027134,-87.67110999962676,IL,4036 N PAULINA ST,60613
224,LIVING HOPE OF CALVARY CHURCH,EVANSTON,BAPTIST GENERAL CONFERENCE,42.0439300003693,-87.68329999969518,IL,1431 ELMWOOD AVE,60201
225,PARKVIEW PRESBYTERIAN CHURCH,OAK PARK,PRESBYTERIAN CHURCH (USA),41.87633000022936,-87.79449000021333,IL,641 S OAK PARK AVE,60304
226,SAINT THECLA CATHOLIC CHURCH,CHICAGO,ROMAN CATHOLIC CHURCH,41.99708999960387,-87.79593999963123,IL,6725 W DEVON AVE,60631
227,ST MICHAEL-ALL ANGELS,BERWYN,EPISCOPAL CHURCH,41.83038999959888,-87.79166999967072,IL,6732 34TH ST,60402
228,ISRAEL SAML AME ZION,CHICAGO,AFRICAN METHODIST EPISCOPAL ZION,41.861849999777746,-87.71974999976266,IL,3757 W DOUGLAS BLVD,60623
229,JEHOVAH'S WITNESSES,CHICAGO,JEHOVAH'S WITNESSES,41.8658099998317,-87.73103999969618,IL,4225 W ROOSEVELT RD,60624
230,EMMANUEL CHURCH-GOD IN CHRIST,CHICAGO,CHURCH OF GOD IN CHRIST,41.87613999956136,-87.70336999982561,IL,3058 W VAN BUREN ST,60612
231,SECOND MT OLIVE MSSNRY BAPT,CHICAGO,NATIONAL BAPTIST CONVENTION OF AMERICA,41.89454000002104,-87.76926000044864,IL,5729 W CHICAGO AVE # 43,60651
232,SAINT TARCISSUS CATHOLIC CHURCH,CHICAGO,ROMAN CATHOLIC CHURCH,41.986650000197415,-87.77881000018135,IL,6020 W ARDMORE AVE,60646
233,NEW SPIRITUAL LIGHT MSSNRY,CHICAGO,BAPTIST MISSIONARY ASSOCIATION OF AMERICA,41.75868999994361,-87.55620999979163,IL,7566 S SOUTH SHORE DR,60649
234,NEW FAITH APOSTOLIC CHURCH,CHICAGO,PENTECOSTAL ASSEMBLIES OF THE WORLD,41.74951999974826,-87.66379999977016,IL,7928 S ASHLAND AVE,60620
235,TRUE CHURCH OF HOLINESS,CHICAGO,PENTECOSTAL - OTHER,41.79011000007648,-87.62024999963774,IL,5735 S INDIANA AVE,60637
236,PICKENS MEMORIAL TEMPLE,CHICAGO,PENTECOSTAL - OTHER,41.79093000011949,-87.6422899997836,IL,5659 S UNION AVE,60621
237,MORNING VIEW WORD CHURCH,CHICAGO,WORD CHURCHES,41.812859999689294,-87.61090999969667,IL,613 E 45TH ST,60653
238,ST AGNES OF BOHEMIA,CHICAGO,ROMAN CATHOLIC CHURCH,41.84304999975774,-87.71440999992154,IL,2651 S CENTRAL PARK AVE,60623
239,DOUGLAS PARK CHURCH BRETHREN,CHICAGO,CHRISTIAN - OTHER,41.85897000006548,-87.69532000001794,IL,1605 S CALIFORNIA AVE,60608
240,HOLY TRINITY HELLENIC ORTHODOX,CHICAGO,GREEK ORTHODOX CHURCH,41.93086000038875,-87.77754000007093,IL,6041 W DIVERSEY AVE,60639
241,TURKISH AMERICAN CULTURAL ALLIANCE,CHICAGO, ,41.950269999760735,-87.80683999956631,IL,3845 N HARLEM AVE,60634
242,SEVENTH PRESBYTERIAN CHURCH,CHICAGO,PRESBYTERIAN CHURCH (USA),41.73719999998008,-87.64704999985759,IL,8623 S SANGAMON ST,60620
243,NEW BEGINNINGS CHR INTL MNSTRY,CHICAGO,NON-DENOMINATIONAL CHURCHES,41.75263999973623,-87.66387999986205,IL,7748 S ASHLAND AVE,60620
244,MT EAGLE BAPTIST CHURCH,CHICAGO,BAPTIST - OTHER,41.81155000043225,-87.61096999976564,IL,4559 S SAINT LAWRENCE AVE,60653
245,SPIRIT-FAITH MSSNRY BAPT CHR,CHICAGO,BAPTIST - OTHER,41.7983699996758,-87.67044000020582,IL,5259 S HONORE ST,60609
246,ST PAUL CATHOLIC CHURCH,CHICAGO,ROMAN CATHOLIC CHURCH,41.85096999986564,-87.67898999968872,IL,2127 W 22ND PL,60608
247,FAITH COMES BY THE WORD,CHICAGO,NON CLASSIFIED AFFILIATION,41.895449999717755,-87.76871999982808,IL,821 N MASSASOIT AVE,60651
248,MARANATHA BIBLE CHURCH MINISTRIES,CHICAGO,BAPTIST GENERAL CONFERENCE,41.90950000012498,-87.78090000033473,IL,6216 W NORTH AVE,60639
249,ST LAMBERT PARISH,SKOKIE,ROMAN CATHOLIC CHURCH,42.029719999778195,-87.73086000038865,IL,8148 KARLOV AVE,60076
250,SAINT PANTELEIMON CHURCH,SUMMIT ARGO,ORTHODOX CHURCH IN AMERICA,41.77958000011694,-87.8101999998301,IL,7545 W 61ST PL,60501
251,PALACES OF PEACE,CHICAGO,SEVENTH DAY ADVENTISTS,41.72229999994511,-87.6565000003747,IL,9445 S ADA ST,60620
252,RADICAL END TIME MINISTRIES,CHICAGO,NON CLASSIFIED AFFILIATION,41.74169999975521,-87.66309000030321,IL,PO BOX 201572,60620
253,NOW FAITH CHR OF GOD HOLINESS,CHICAGO,HOLINESS - OTHER,41.73933000017939,-87.56449000031324,IL,8551 S PHILLIPS AVE,60617
254,REDEMPTION WAY CHURCH OF GOD,CHICAGO,"CHURCH OF GOD (CLEVELAND, TN)",41.72123000006451,-87.56055999984409,IL,9545 S COLFAX AVE,60617
255,NEW HAVEN BAPTIST CHURCH,CHICAGO,BAPTIST - OTHER,41.81433000002954,-87.620879999912,IL,4413 S INDIANA AVE,60653
256,ARCHDIOCESE OF CHICAGO,CHICAGO,ROMAN CATHOLIC CHURCH,41.897769999685806,-87.62578999970867,IL,835 N RUSH ST,60611
257,JEHOVAHS WITNESSES,OAK LAWN,JEHOVAH'S WITNESSES,41.71347000014043,-87.78913000034919,IL,9801 OAK PARK AVE,60453
258,AGAPE COMMUNITY COVENANT CHR,CHICAGO,NON CLASSIFIED AFFILIATION,41.87654000002101,-87.70880000021981,IL,320 S SPAULDING AVE,60624
259,GREATER MOUNT ZION BAPTIST CHURCH,CHICAGO,SOUTHERN BAPTIST CONVENTION,41.87350000012498,-87.69973000013937,IL,2929 W HARRISON ST,60612
260,BETHEL NEW LIFE INC,CHICAGO,PENTECOSTAL - OTHER,41.88156999995556,-87.73497999972716,IL,4349 W WASHINGTON BLVD # OFC,60624
261,LUBAVITCH CHABAD OF ILLINIOS,CHICAGO, ,42.019049999657796,-87.70077999999694,IL,2833 W HOWARD ST,60645
262,FIRST BAPTIST CHURCH,BERWYN,AMERICAN BAPTIST CHURCHES/USA,41.83033000042923,-87.79634000009088,IL,6916 34TH ST,60402
263,SOUTH SHORE UNITED METHODIST CHURCH,CHICAGO,UNITED METHODIST CHURCH,41.760889999773724,-87.57631000040618,IL,7350 S JEFFERY BLVD,60649
264,WOODLAWN BAPTIST CHURCH,CHICAGO,AMERICAN BAPTIST CHURCHES/USA,41.78214999992264,-87.59774000030075,IL,6207 S UNIVERSITY AVE,60637
265,FIRST LATIN AMERICAN BAPT CHR,CHICAGO,AMERICAN BAPTIST CHURCHES/USA,41.82481999994309,-87.69257000000545,IL,3754 S WASHTENAW AVE,60632
266,OLD FRIENDSHIP MB CHURCH,CHICAGO,BAPTIST - OTHER,41.80406999993062,-87.61211000017636,IL,544 E 50TH ST,60615
267,ORIGINAL NEW MORNING STAR M B,CHICAGO,INDEPENDENT BAPTIST CHURCHES,41.90433000002952,-87.6806899998436,IL,2124 W CRYSTAL ST,60622
268,ST MICHAELS CHURCH,CHICAGO,ROMAN CATHOLIC CHURCH,41.911920000207886,-87.64090000043461,IL,1633 N CLEVELAND AVE,60614
269,DOUGLAS PARK BAPTIST CHURCH,CHICAGO,PROGRESSIVE NATIONAL BAPTIST CONVENTION,41.85650999993658,-87.70574000030075,IL,1840 S KEDZIE AVE,60623
270,CHICAGO FIL-AM SEVENTH-DAY,CHICAGO,SEVENTH DAY ADVENTISTS,41.95196000035378,-87.76732000001795,IL,3920 N CENTRAL AVE,60634
271,JEWISH RECONSTRUCTIONIST CONGREGATION,EVANSTON, ,42.023029999734774,-87.69938999974863,IL,303 DODGE AVE,60202
272,ST PETER PAUL LUTHERAN CHURCH,RIVERSIDE,EVANGELICAL LUTHERAN CHURCH IN AMERICA,41.83512999964984,-87.82331999961826,IL,250 WOODSIDE RD,60546
273,UNITY TEMPLE CONGREGAT,OAK PARK,NON CLASSIFIED AFFILIATION,41.88823000041424,-87.80128999993349,IL,1011 LAKE ST # 212,60301
274,BETHLEHEM EVANGELICAL LUTHERAN,CHICAGO,EVANGELICAL LUTHERAN CHURCH IN AMERICA,41.72279999962035,-87.67953999987105,IL,9401 S OAKLEY AVE,60643
275,ZION HILL MB CHURCH,CHICAGO,NATIONAL BAPTIST CONVENTION-USA,41.75257000010549,-87.66108000024178,IL,1460 W 78TH ST,60620
276,ENGLEWOOD CHURCH OF GOD,CHICAGO,"CHURCH OF GOD (ANDERSON, IN)",41.783540000170944,-87.65295999990406,IL,1122 W 61ST ST,60621
277,GORHAM UNITED METHODIST CHURCH,CHICAGO,UNITED METHODIST CHURCH,41.792719999928124,-87.62118000025674,IL,5600 S INDIANA AVE,60637
278,EAST SIDE UNITED METHODIST CHR,CHICAGO,UNITED METHODIST CHURCH,41.69547000014046,-87.5353999997102,IL,11000 S EWING AVE,60617
279,LOVE & UNITY EVANGELISTS CHR,CHICAGO,NON CLASSIFIED AFFILIATION,41.902050000107465,-87.74856000004394,IL,1140 N LAMON AVE,60651
280,HAMLETT-ISOM CME,CHICAGO,CHRISTIAN METHODIST EPISCOPAL CHURCH,41.90244000010597,-87.76292000035767,IL,5446 W DIVISION ST,60651
281,PHILIPPINE AMERICAN ECUMENICAL,CHICAGO,UNITED CHURCH OF CHRIST,41.94574999996257,-87.70500000034968,IL,3533 N ALBANY AVE,60618
282,SAINT FABIAN CATHOLIC CHURCH,BRIDGEVIEW,ROMAN CATHOLIC CHURCH,41.74040999962182,-87.80584999977765,IL,8300 THOMAS AVE,60455
283,ST CELESTINE CHURCH,ELMWOOD PARK,ROMAN CATHOLIC CHURCH,41.93497999972726,-87.81774999996247,IL,3020 N 76TH CT,60707
284,DIVINE SAVIOR PARISH,NORRIDGE,ROMAN CATHOLIC CHURCH,41.959789999908594,-87.82080000031971,IL,7740 W MONTROSE AVE,60706
285,EBENEZER BAPTIST CHURCH,CHICAGO,BAPTIST MISSIONARY ASSOCIATION OF AMERICA,41.81283999966632,-87.61357999961723,IL,4501 S VINCENNES AVE,60653
286,HOLY CROSS IMMACULATE HEART CATH CHURCH,CHICAGO,ROMAN CATHOLIC CHURCH,41.81108999990363,-87.66954999963275,IL,4541 S WOOD ST,60609
287,CHICAGO INTERNATIONAL EVANGELICAL FREE,CHICAGO, ,41.86695999980418,-87.65111000002645,IL,1001 W ROOSEVELT RD,60608
288,HOLY TRINITY CHURCH,CHICAGO,NON-DENOMINATIONAL CHURCHES,41.8779399998312,-87.62935999976412,IL,53 W JACKSON BLVD # 305,60604
289,URBAN VILLAGE CHURCH,CHICAGO,UNITED METHODIST CHURCH,41.903059999919094,-87.66683000010437,IL,1543 W DIVISION ST,60642
290,CHRISTIAN LOVE DELIVERANCE CTR,CHICAGO,CHRISTIAN - OTHER,41.69863999973626,-87.62124000032571,IL,10742 S MICHIGAN AVE,60628
291,SHILOH MISSIONARY BAPTIST CHR,CHICAGO,BAPTIST MISSIONARY ASSOCIATION OF AMERICA,41.702020000023026,-87.64308000024175,IL,10540 S HALSTED ST,60628
292,SAINT LADISLAUS CATHOLIC CHURCH,CHICAGO,ROMAN CATHOLIC CHURCH,41.941840000415766,-87.74938000008689,IL,3343 N LONG AVE,60641
293,SAINT GEORGE-MATTHIAS EPISCOPAL CHURCH,CHICAGO,EPISCOPAL CHURCH,41.692740000150934,-87.61862999957481,IL,164 E 111TH ST,60628
294,LABOURERS FOR CHRIST MINSTRIES,CHICAGO,NON-DENOMINATIONAL CHURCHES,41.70715000007249,-87.66594999999245,IL,1750 W 103RD ST,60643
295,OUR LADY OF FATIMA PARISH,CHICAGO,ROMAN CATHOLIC CHURCH,41.823420000132955,-87.69431000020631,IL,2751 W 38TH PL,60632
296,EDEN PLACE BIBLE FELLOWSHIP,CHICAGO,BAPTIST GENERAL CONFERENCE,41.814700000005075,-87.64363999998596,IL,4350 S UNION,60609
297,ST IGNATIUS CHURCH,CHICAGO,ROMAN CATHOLIC CHURCH,42.00186000013895,-87.66547000034018,IL,6559 N GLENWOOD AVE,60626
298,MORGAN PARK PRESBYTERIAN CHR,CHICAGO,PRESBYTERIAN CHURCH IN AMERICA,41.70304999985768,-87.66057999966722,IL,11056 S LONGWOOD DR,60643
299,MIDWAY AIRPORT CHAPEL,CHICAGO,ROMAN CATHOLIC CHURCH,41.788400000359786,-87.74061999991301,IL,5700 S CICERO AVE # 57,60638
300,NEW LIFE COMMUNITY CHURCH,CHICAGO,NON-DENOMINATIONAL CHURCHES,41.7998299995549,-87.72754000017085,IL,5101 S KEELER AVE,60632
301,LONG AVE CHURCH OF CHRIST,CHICAGO,CHURCHES OF CHRIST (NON-INSTRUMENTAL),41.902850000127444,-87.76081000018132,IL,1221 N LONG AVE,60651
302,RESTORATION DELIVERANCE CENTER C O G I C,CHICAGO,CHURCH OF GOD IN CHRIST,41.901970000015524,-87.7723200003677,IL,5845 W DIVISION ST,60651
303,EVANGEL WORLD OUTREACH CENTER,CHICAGO, ,41.93154999983267,-87.75397000041517,IL,5100 W DIVERSEY AVE,60639
304,FIRST MENNONITE CHURCH,CHICAGO,MENNONITE CHURCH USA,41.76104000039578,-87.66188000026176,IL,1477 W 73RD ST,60636
305,SECOND BIRTH MSSNRY BAPT CHR,CHICAGO,BAPTIST - OTHER,41.76145999997908,-87.65418000040665,IL,7254 S RACINE AVE,60636
306,HOPE PRESBYTERIAN CHURCH,CHICAGO,PRESBYTERIAN CHURCH (USA),41.78342999959483,-87.65925999994903,IL,1354 W 61ST ST,60636
307,RIVERCITY COMMUNITY CHURCH,CHICAGO,NON-DENOMINATIONAL CHURCHES,41.91966000010899,-87.69256000044362,IL,2124 N MILWAUKEE AVE,60647
308,RAVENSWOOD PRESBYTERIAN CHURCH,CHICAGO,PRESBYTERIAN CHURCH (USA),41.96001999972327,-87.67249999987507,IL,4300 N HERMITAGE AVE,60613
309,IGLESIA METODISTA UNIDA AMOR,CHICAGO,UNITED METHODIST CHURCH,41.84870999996656,-87.70650999983661,IL,2356 S SAWYER AVE,60623
310,KIMBALL AVENUE EVANGELICAL,CHICAGO,EVANGELICAL CONGREGATIONAL CHURCH,41.92352000004803,-87.71243000034423,IL,2324 N KIMBALL AVE,60647
311,MART MAEIAM PARISH,CHICAGO,ROMAN CATHOLIC CHURCH,42.013580000116974,-87.70166999967068,IL,2849 W CHASE AVE,60645
312,APOSTOLIC FAITH CHURCH,EVANSTON,PENTECOSTAL ASSEMBLIES OF THE WORLD,42.05075999967431,-87.69928999963372,IL,1812 DODGE AVE,60201
313,CHAI CENTER CHABAD OF WILMETTE,WILMETTE, ,42.06596000005402,-87.74784999967773,IL,2904 OLD GLENVIEW RD,60091
314,ST JOHNS EVANGELICAL LUTH CHR,WILMETTE,EVANGELICAL LUTHERAN CHURCH IN AMERICA,42.07437000027534,-87.7087299996897,IL,1235 WILMETTE AVE,60091
315,MASJID AL QADIR,CHICAGO, ,41.751079999742274,-87.56293999988105,IL,7920 S KINGSTON ST,60617
316,MARANATHA CHURCH OF GOD,CHICAGO,CHURCH OF GOD IN CHRIST,41.76973999960137,-87.62455999964425,IL,6841 S STATE ST,60637
317,MT CALVARY CH OF GOD HOLINESS,CHICAGO,MOUNT CALVARY HOLY CHURCH OF AMERICA,41.78846999999058,-87.63003000008439,IL,5815 S WENTWORTH AVE,60621
318,NEW HEAVEN & EARTH CHURCH,CHICAGO,PENTECOSTAL - OTHER,41.7995900001784,-87.67118000015682,IL,5158 S HONORE ST,60609
319,OUR LADY OF LORETTO CATHOLIC CHURCH,HOMETOWN,ROMAN CATHOLIC CHURCH,41.729890000123476,-87.7335300003092,IL,8925 S KOSTNER AVE,60456
320,THIRD UNITARIAN CHR OF CHIGAGO,CHICAGO,NON CLASSIFIED AFFILIATION,41.88589000042322,-87.77152000034772,IL,301 N MAYFIELD AVE,60644
321,SAINT PAUL THAI LUTHERAN CHURCH,FOREST PARK,EVANGELICAL LUTHERAN CHURCH IN AMERICA,41.864770000435215,-87.81276000007392,IL,7424 DIXON ST,60130
322,RESURRCTION EVANGELICAL LUTH,RIVER FOREST,EVANGELICAL LUTHERAN CHURCH IN AMERICA,41.88930000029484,-87.81477999969718,IL,PO BOX 44G,60305
323,ST GREGORY'S ARMENIAN CHURCH,CHICAGO,ARMENIAN CHURCH OF AMERICA,41.93103999969628,-87.79299999985005,IL,6700 W DIVERSEY AVE,60707
324,SAINT DAVIDS EPISCOPAL CHURCH,GLENVIEW,EPISCOPAL CHURCH,42.07339999961033,-87.81910000016484,IL,2410 GLENVIEW RD,60025
325,ST PAUL EVANGELICAL LUTHERAN,CHICAGO,EVANGELICAL LUTHERAN CHURCH IN AMERICA,41.89597000031529,-87.77052000009786,IL,846 N MENARD AVE,60651
326,HERITAGE INTERNATIONAL CHRSTN,CHICAGO,NON-DENOMINATIONAL CHURCHES,41.90976999998554,-87.75911000002645,IL,5320 W NORTH AVE,60639
327,IMMACULATE HEART-MARY PARISH,CHICAGO,ROMAN CATHOLIC CHURCH,41.951339999641334,-87.7107300001893,IL,3834 N SPAULDING AVE,60618
328,OUR LADY OF VICTORY PARISH,CHICAGO,ROMAN CATHOLIC CHURCH,41.96159999974026,-87.75775999982409,IL,5212 W AGATITE AVE,60630
329,ASSYRIAN EVANGELICAL COVENANT,CHICAGO,EVANGELICAL COVENANT CHURCH,41.9761000002149,-87.69685999998899,IL,5210 N WASHTENAW AVE,60625
330,AGAPE LIFE OUTREACH CENTER,SKOKIE,UNITED PENTECOSTAL CHURCH,42.037929999769744,-87.74969999955528,IL,8610 NILES CENTER RD,60077
331,GLORY TEMPLE MINISTRY,CHICAGO,NON CLASSIFIED AFFILIATION,41.746969999965586,-87.60386999970069,IL,235 E 79TH ST,60619
332,ST JAMES EVANGELICAL LUTH CHR,CHICAGO,EVANGELICAL LUTHERAN CHURCH IN AMERICA,41.74900999961187,-87.62180999963175,IL,8000 S MICHIGAN AVE,60619
333,HOLY CROSS LUTHERAN CHURCH,CHICAGO,LUTHERAN CHURCH - MISSOURI SYNOD,41.83723999982618,-87.6563600002138,IL,3116 S RACINE AVE,60608
334,THE SWEDENBORGIAN CHURCH,CHICAGO,SWEDENBORGIAN CHURCHES,41.88286000008901,-87.63060999985157,IL,77 W WASHINGTON ST STE 1700,60602
335,WELLINGTON AVENUE UCC,CHICAGO,UNITED CHURCH OF CHRIST,41.936209999791686,-87.64491999965821,IL,615 W WELLINGTON AVE,60657
336,SEVENTH CHURCH CHRISTIAN SCIENCE,CHICAGO,CHRISTIAN SCIENCE CHURCHES,41.97840999972175,-87.65659000002842,IL,5312 N KENMORE AVE,60640
337,MOUNT GREENWOOD LUTHERAN CHURCH,CHICAGO,LUTHERAN CHURCH - MISSOURI SYNOD,41.69483999986613,-87.70675000011238,IL,10911 S TRUMBULL AVE,60655
338,SALEM BAPTIST CHURCH,CHICAGO,BAPTIST - OTHER,41.696580000067,-87.60811999963823,IL,10909 S COTTAGE GROVE AVE,60628
339,MINISTERIO HAZIEL EVANGELICAL FREE CHR,CHICAGO, ,41.95332000011797,-87.74831000020629,IL,4839 W IRVING PARK RD,60641
340,NEW DELIVERANCE CHURCH,CHICAGO,PRESBYTERIAN CHURCH (USA),41.690770000135444,-87.62319000031823,IL,11200 S STATE ST,60628
341,FIRST UNITED METHODIST CHURCH,PARK RIDGE,UNITED METHODIST CHURCH,42.0116700001704,-87.82870000040464,IL,418 W TOUHY AVE,60068
342,EVANGELISTIC CRUSADERS CHURCH,CHICAGO,CHURCH OF GOD IN CHRIST,41.729810000031534,-87.60507999974214,IL,9044 S COTTAGE GROVE AVE,60619
343,JEHOVAHS WITNESSES,CHICAGO,JEHOVAH'S WITNESSES,41.818769999735764,-87.61252999975966,IL,536 E 42ND ST,60653
344,PILGRIM REST MISSIONARY BAPTIST CHURCH,CHICAGO,INDEPENDENT BAPTIST CHURCHES,41.8831099999266,-87.67436000021382,IL,1901 W WASHINGTON BLVD,60612
345,QUEEN OF THE UNIVERSE PARISH,CHICAGO,ROMAN CATHOLIC CHURCH,41.76334999990263,-87.71761999956328,IL,7114 S HAMLIN AVE,60629
346,RESURRECTION UNITED MTHDST CHR,CHICAGO,UNITED METHODIST CHURCH,41.776939999781234,-87.76457000000545,IL,5717 W 63RD PL,60638
347,ST PIUS X PARISH,BERWYN,ROMAN CATHOLIC CHURCH,41.81328999973374,-87.79260000028972,IL,4314 OAK PARK AVE,60402
348,REDEEM TABERNACLE CHR OF GOD,CHICAGO,"CHURCH OF GOD (CLEVELAND, TN)",41.863130000349315,-87.72545000001747,IL,1340 S PULASKI RD,60623
349,FIRST CHURCH OF BRETHREN,CHICAGO,CHURCH OF THE BRETHREN,41.87422999961484,-87.76426000009889,IL,425 S CENTRAL AVE,60644
350,LIVING SANCTUARY OF FAITH,OAK PARK,CHURCH OF GOD IN CHRIST,41.89813999966128,-87.80270000020482,IL,701 BELLEFORTE AVE,60302
351,ST ANDREW PRESBYTERIAN CHURCH,CHICAGO,PRESBYTERIAN CHURCH (USA),41.97620999989164,-87.81551999964825,IL,7534 W BERWYN AVE,60656
352,SAINT MARKS LUTHERAN CHURCH,CHICAGO,EVANGELICAL LUTHERAN CHURCH IN AMERICA,41.73453000005952,-87.60745999977911,IL,655 E 88TH ST,60619
353,NEW MEMORIAL MSSNRY BAPT CHR,CHICAGO,SOUTHERN BAPTIST CONVENTION,41.76968000043172,-87.62067000012036,IL,6844 S INDIANA AVE,60637
354,ASSUMPTION CHURCH SERVITE,CHICAGO,ROMAN CATHOLIC CHURCH,41.89051999989812,-87.63668999964375,IL,323 W ILLINOIS ST,60654
355,FIRST ST PAUL'S EVANGELICAL,CHICAGO,LUTHERAN CHURCH - MISSOURI SYNOD,41.905970000115474,-87.63251999979809,IL,1301 N LA SALLE DR,60610
356,CHICAGO LAWN UNITED MTHDST CHR,CHICAGO,UNITED METHODIST CHURCH,41.778029999684804,-87.71038999979862,IL,3500 W 63RD PL,60629
357,THE HOUSE COVENANT CHURCH,CHICAGO,EVANGELICAL COVENANT CHURCH,41.852300000045034,-87.7205699998056,IL,3827 W OGDEN AVE,60623
358,GREATER LOVE MB CHURCH,CHICAGO,BAPTIST - OTHER,41.88579999987013,-87.76879999992002,IL,5720 W FULTON ST,60644
359,SAINT PETER AND SAINT PAUL LUTHERAN CHR,RIVERSIDE,EVANGELICAL LUTHERAN CHURCH IN AMERICA,41.83512999964984,-87.82331999961826,IL,250 WOODSIDE RD,60546
360,SAINT EDMUND PARISH,OAK PARK,ROMAN CATHOLIC CHURCH,41.8854000003098,-87.79396000005391,IL,188 S OAK PARK AVE,60302
361,LOVE & UNITY PRAYER GROUP,CHICAGO,NON CLASSIFIED AFFILIATION,41.74563999978619,-87.59577999984708,IL,1153 E 82ND ST,60619
362,FIRST CHURCH OF THE BRETHREN,CHICAGO,CHURCH OF THE BRETHREN,41.87485999988911,-87.71506000021878,IL,425 S CENTRAL PARK BLVD,60624
363,OLD ST PAUL,CHICAGO,BAPTIST MISSIONARY ASSOCIATION OF AMERICA,41.891319999918096,-87.70607999979211,IL,531 N KEDZIE AVE,60612
364,ST JAMES PARISH,CHICAGO,ROMAN CATHOLIC CHURCH,41.92407000023036,-87.76961999996297,IL,5730 W FULLERTON AVE,60639
365,BRANCH COMMUNITY CHURCH,CHICAGO,NON-DENOMINATIONAL CHURCHES,41.97553000000954,-87.78189999968521,IL,6125 W FOSTER AVE,60630
366,ST TARCISSUS PARISH,CHICAGO,ROMAN CATHOLIC CHURCH,41.986650000197415,-87.77881000018135,IL,6020 W ARDMORE AVE,60646
367,CONGREGATION BETH SHOLOM AHAVAS,CHICAGO, ,41.98454000002101,-87.70888999987358,IL,5665 N JERSEY AVE,60659
368,KEHILLAT SHALOM,SKOKIE, ,42.037929999769744,-87.74969999955528,IL,8610 NILES CENTER RD,60077
369,TRUE LIGHT BAPTIST CHURCH,CHICAGO,NATIONAL BAPTIST CONVENTION-USA,41.762190000368264,-87.60437999983708,IL,7302 S MARYLAND AVE,60619
370,MT VERNON,CHICAGO,SOUTHERN BAPTIST CONVENTION,41.87760999990161,-87.69197000021529,IL,2622 W JACKSON BLVD,60612
371,RESURRECTION LUTHERAN CHURCH,CHICAGO,EVANGELICAL LUTHERAN CHURCH IN AMERICA,41.94178999990862,-87.65644000030574,IL,3303 N SEMINARY AVE,60657
372,WEST RIDGE CMNTY UNITED MTHDST,CHICAGO,UNITED METHODIST CHURCH,42.008630000274366,-87.68811999983808,IL,2301 W LUNT AVE,60645
373,BETTER WAY CHRISTIAN CMNTY CHR,CHICAGO,EVANGELICAL - OTHER,41.855250000287356,-87.70987999966223,IL,1901 S HOMAN AVE,60623
374,IGLESIA MISINERA NORTH AVENUE BAPTIST,CHICAGO,SOUTHERN BAPTIST CONVENTION,41.92319999968032,-87.74911999978815,IL,4917 W MEDILL AVE,60639
375,NORWOOD GOSPEL CHAPEL,CHICAGO,NON-DENOMINATIONAL CHURCHES,41.97468000038174,-87.78804000044562,IL,5146 N NAGLE AVE,60630
376,GRACE BIBLE CHURCH OF BERWYN,BERWYN,INDEPENDENT FUNDAMENTAL CHURCHES,41.857749999562884,-87.79613999986105,IL,6900 16TH ST W,60402
377,ST LUCY CHURCH,CHICAGO,ROMAN CATHOLIC CHURCH,41.83224000037575,-87.62779999977016,IL,3018 S WELLS ST,60616
378,ALL SAINTS ST ANTHONY CHURCH,CHICAGO,ROMAN CATHOLIC CHURCH,41.842790000358264,-87.64052999955982,IL,518 W 28TH PL,60616
379,IGLESIA DEL PACTO BELEN,CHICAGO,EVANGELICAL COVENANT CHURCH,41.9838299996548,-87.6651999995803,IL,1400 W BRYN MAWR AVE,60660
380,MANY PEOPLES COMMUNITY CHRISTIAN REFD CH,CHICAGO,CHRISTIAN REFORMED CHURCH,42.007819999793185,-87.66798999963873,IL,1507 W MORSE AVE,60626
381,UNITED CHURCH OF ROGERS PARK,CHICAGO,UNITED METHODIST CHURCH,42.00760000043971,-87.6695600000939,IL,1545 W MORSE AVE,60626
382,OAK LAWN CONGRGTN-JEHOVAH'S,OAK LAWN,JEHOVAH'S WITNESSES,41.71347000014043,-87.78913000034919,IL,9801 OAK PARK AVE,60453
383,FIRST UNITED REFORMED CHR OF OAK LAWN,OAK LAWN,UNITED REFORMED CHURCHES IN NORTH AMERICA,41.7215199999481,-87.7551499999725,IL,9401 S 54TH AVE,60453
384,KINGDOM LIFE LINE,CHICAGO,NON CLASSIFIED AFFILIATION,41.87498999958888,-87.72701999957326,IL,4039 W VAN BUREN ST # 1,60624
385,NORTHWEST COMMUNITY CHURCH,CHICAGO,FREE WILL BAPTISTS,41.93162999992461,-87.75984000041564,IL,5318 W DIVERSEY AVE,60639
386,IGELISIA DE DIOS M I,CHICAGO,PENTECOSTAL - OTHER,41.93390999984666,-87.74628000012189,IL,2917 N CICERO AVE,60641
387,CHICAGO TABERNACLE,CHICAGO,ASSEMBLIES OF GOD,41.939579999617365,-87.74669000014336,IL,3225 N CICERO AVE,60641
388,OUR LADY OF GUADALUPE CATHOLIC CHURCH,CHICAGO,ROMAN CATHOLIC CHURCH,41.73026000009895,-87.54690000033469,IL,3200 E 91ST ST,60617
389,HOLY INNOCENTS CATHOLIC CHURCH,CHICAGO,ROMAN CATHOLIC CHURCH,41.89556999985564,-87.66527000011035,IL,743 N ARMOUR ST,60642
390,HOLY INNOCENTS PARISH,CHICAGO,ROMAN CATHOLIC CHURCH,41.89556999985564,-87.66527000011035,IL,743 N ARMOUR ST,60642
391,BETHANY UNITED CHR OF CHRIST,CHICAGO,UNITED CHURCH OF CHRIST,41.958989999888615,-87.67087999981209,IL,4250 N PAULINA ST,60613
392,MI PRIMERA ESQUELITA,CHICAGO,NON CLASSIFIED AFFILIATION,41.99689999983519,-87.69195000019232,IL,6333 N CAMPBELL AVE,60659
393,CORCORAN WILLIAM T REV,OAK LAWN,CHRISTIAN - OTHER,41.70548999996356,-87.74642999984457,IL,10300 LAWLER AVE,60453
394,ZION LUTHERAN CHURCH,LYONS,LUTHERAN CHURCH - MISSOURI SYNOD,41.82005999986916,-87.81978999960876,IL,7930 OGDEN AVE,60534
395,GLENVIEW COMMUNITY CHURCH,GLENVIEW,UNITED CHURCH OF CHRIST,42.07349999972524,-87.81128000017185,IL,1000 ELM ST,60025
396,STS PETER & PAUL ORTHODOX CHR,GLENVIEW,GREEK ORTHODOX CHURCH,42.080530000159456,-87.78004000024578,IL,1401 WAGNER RD,60025
397,MASJID UMAR,CHICAGO, ,41.686890000173435,-87.62054999998247,IL,11405 S MICHIGAN AVE,60628
398,SAINT ALBERT THE GREAT CATHOLIC CHURCH,BURBANK,ROMAN CATHOLIC CHURCH,41.746889999873645,-87.75917000009537,IL,8000 S LINDER AVE,60459
399,EVANGELICAL SPIRITUAL CHURCH,CICERO,NON-DENOMINATIONAL CHURCHES,41.84593999993109,-87.75297999972719,IL,5130 W 25TH ST,60804
400,CLEMENT PRESBYTERIAN CHURCH,CICERO,PRESBYTERIAN CHURCH (USA),41.860490000013556,-87.75034999985257,IL,1447 S 50TH CT,60804
401,CHRISTIAN LOVE MSSNRY BAPT CHR,CHICAGO,CHRISTIAN - OTHER,41.891359999964095,-87.70853000035919,IL,535 N SPAULDING AVE,60624
402,NEW HOPE BIBLE CHURCH,CHICAGO,NON CLASSIFIED AFFILIATION,41.91405000040726,-87.7358900003232,IL,1805 N KOSTNER AVE,60639
403,ANNUNCIATA CATHOLIC CHURCH,CHICAGO,ROMAN CATHOLIC CHURCH,41.692740000150934,-87.5318000000699,IL,11128 S AVE G,60617
404,BEVERLY UNITARIAN CHURCH,CHICAGO,UNITARIAN UNIVERSALIST ASSOCIATION,41.70690999979672,-87.67118000015682,IL,10244 S LONGWOOD DR,60643
405,CHRISTIAN MISSIONARY BAPTIST,CHICAGO,BAPTIST MISSIONARY ASSOCIATION OF AMERICA,41.70538000028682,-87.6272299995648,IL,132 W 104TH ST,60628
406,PULLMAN CHRISTIAN REFORMED CHR,CHICAGO,CHRISTIAN REFORMED CHURCH,41.707430000394254,-87.61248999971366,IL,424 E 103RD ST,60628
407,COMMUNITY CENTER OF THE PEOPLES CHURCH,CHICAGO,NON-DENOMINATIONAL CHURCHES,41.807579999917095,-87.62403000038415,IL,56 E 48TH ST,60615
408,BETHEL BIBLE CHURCH,EVERGREEN PARK,INDEPENDENT BIBLE CHURCHES,41.71880000041972,-87.7030300003342,IL,3225 W 96TH ST,60805
409,SAINT LUKE LUTHERAN CHURCH OF LOGAN SQ,CHICAGO,EVANGELICAL LUTHERAN CHURCH IN AMERICA,41.91724999958785,-87.6986699998206,IL,2837 W ARMITAGE AVE,60647
410,LA HERMOSA CHURCH OF GOD,CHICAGO,"CHURCH OF GOD (ANDERSON, IN)",41.933860000238894,-87.70976000042367,IL,2901 N SPAULDING AVE,60618
411,TRINITY ALL NATION CHURCH,CHICAGO,PENTECOSTAL - OTHER,41.71924999958787,-87.65154999963272,IL,9600 S VINCENNES AVE,60643
412,CORNERSTONE BAPTIST CHURCH,CHICAGO,BAPTIST - OTHER,41.795449999917594,-87.59967999983206,IL,1100 E 55TH ST,60615
413,SAINT BENEDICT CATHOLIC CHURCH,CHICAGO,ROMAN CATHOLIC CHURCH,41.953750000162415,-87.6844400001059,IL,2215 W IRVING PARK RD,60618
414,FIRST VIETNAMESE UNITED MTHDST,CHICAGO,UNITED METHODIST CHURCH,41.964980000027026,-87.70623000041417,IL,3100 W WILSON AVE,60625
415,EDEN UNITED CHURCH OF CHRIST,CHICAGO,UNITED CHURCH OF CHRIST,41.9685999996903,-87.75477000043514,IL,5051 W GUNNISON ST,60630
416,KINGDOM PATHWAY CHURCH,CHICAGO,CHRISTIAN - OTHER,42.012280000421754,-87.69618000010689,IL,2632 W TOUHY AVE,60645
417,ACACIA PARK EVANGELICAL LUTH,NORRIDGE,EVANGELICAL LUTHERAN CHURCH IN AMERICA,41.95816000028384,-87.81666999962073,IL,4307 N ORIOLE AVE,60706
418,BETHLEHEM STAR MSSNRY BAPT CHR,CHICAGO,BAPTIST MISSIONARY ASSOCIATION OF AMERICA,41.726560000343795,-87.60412999999949,IL,9231 S COTTAGE GROVE AVE,60619
419,ST JOSEPH CHURCH,CHICAGO,ROMAN CATHOLIC CHURCH,41.80630999980667,-87.66822000035268,IL,4821 S HERMITAGE AVE,60609
420,BRENT HOUSE,CHICAGO,EPISCOPAL CHURCH,41.794170000245344,-87.59663999993603,IL,5540 S WOODLAWN AVE,60637
421,LAKE VIEW CONGREGATION,CHICAGO,UNITED CHURCH OF CHRIST,41.95541000027134,-87.67110999962676,IL,4036 N PAULINA ST,60613
422,CHICAGO BEACON-JOY SEVENTH DAY,CHICAGO,SEVENTH DAY ADVENTISTS,41.69684999992762,-87.62590999984656,IL,101 W 108TH ST,60628
423,ST NICHOLAS OF TOLENTINE,CHICAGO,ROMAN CATHOLIC CHURCH,41.777630000124475,-87.71036000021383,IL,6200 S LAWNDALE AVE,60629
424,WESTSIDE CENTER OF TRUTH,CHICAGO,UNITY SCHOOL OF CHRISTIANITY,41.84563000002453,-87.70874000015084,IL,W OGDEN AVE,60623
425,KEDVALE NEW MT ZION BAPTIST,CHICAGO,BAPTIST - OTHER,41.86404000004603,-87.7291400002108,IL,1306 S KEDVALE AVE,60623
426,HAMAN GIBSON NEW DIMENSION,OAK PARK,CHURCH OF GOD IN CHRIST,41.89302000007302,-87.77553999957127,IL,634 N AUSTIN BLVD,60302
427,ST MONICA PARISH,CHICAGO,ROMAN CATHOLIC CHURCH,41.97456999980568,-87.80373000003942,IL,5136 N NOTTINGHAM AVE,60656
428,NEW COVENANT LIFE CHURCH,CHICAGO,NON-DENOMINATIONAL CHURCHES,41.72225999989911,-87.61104999985758,IL,514 E 95TH ST,60619
429,NEW DIRECTIONS MSSNRY BAPT CHR,CHICAGO,SOUTHERN BAPTIST CONVENTION,41.74019000026834,-87.65310999962674,IL,8441 S RACINE AVE,60620
430,CHURCH OF GOD,CHICAGO,NON-DENOMINATIONAL CHURCHES,41.78214999992264,-87.59774000030075,IL,6207 S UNIVERSITY AVE,60637
431,ST THOMAS EPISCOPAL CHURCH,CHICAGO,EPISCOPAL CHURCH,41.82543000019439,-87.62368000043165,IL,3800 S MICHIGAN AVE,60653
432,CHICAGO-N ASHLAND AVE,CHICAGO,NON CLASSIFIED AFFILIATION,41.90153000040925,-87.66783000035417,IL,1062 N ASHLAND AVE,60622
433,WAYMAN AME CHURCH,CHICAGO,AFRICAN METHODIST EPISCOPAL CHURCH,41.90199000003855,-87.64154999983259,IL,509 W ELM ST,60610
434,SAINT JOSEPH CATHOLIC CHURCH,CHICAGO,ROMAN CATHOLIC CHURCH,41.90234999955288,-87.63692999991952,IL,1107 N ORLEANS ST,60610
435,CHICAGO INDEPENDENCE BLVD,CHICAGO,SEVENTH DAY ADVENTISTS,41.8709799999271,-87.72073999955131,IL,3808 W POLK ST,60624
436,NEW LIFE INTL CHURCH,CHICAGO,NON CLASSIFIED AFFILIATION,41.88655999984417,-87.76637999983711,IL,327 N PARKSIDE AVE,60644
437,HOLY TRINITY CHURCH,CHICAGO,NON-DENOMINATIONAL CHURCHES,41.88698999988861,-87.76064000043561,IL,5401 W LAKE ST,60644
438,JERUSALEM LUTHERAN CHURCH,MORTON GROVE,WISCONSIN EVANGELICAL LUTHERAN,42.038410000321335,-87.782119999938,IL,6218 CAPULINA AVE,60053
439,PULLMAN PRESBYTERIAN CHURCH,CHICAGO,PRESBYTERIAN CHURCH (USA),41.707660000208875,-87.60934999970272,IL,550 E 103RD ST,60628
440,KINGDOM BUILDING M B CHURCH,CHICAGO,BAPTIST - OTHER,41.758649999897614,-87.66326000004892,IL,7427 S ASHLAND AVE,60636
441,BLACKWELL ISRAEL SAMUEL A M E,CHICAGO,METHODIST - OTHER,41.82241999988315,-87.61006000006893,IL,3956 S LANGLEY AVE,60653
442,FIRST UNITY BAPTIST CHURCH,CHICAGO,NATIONAL BAPTIST CONVENTION-USA,41.80090000033482,-87.62057000000544,IL,5129 S INDIANA AVE,60615
443,HOLY FAMILY PARISH,CHICAGO,ROMAN CATHOLIC CHURCH,41.8672299996648,-87.6540400002458,IL,1080 W ROOSEVELT RD,60608
444,ST JOHN'S CHURCH OF THE EAST,CHICAGO,ROMAN CATHOLIC CHURCH,41.9687900003583,-87.66568999969371,IL,1421 W LAWRENCE AVE,60640
445,EMMANUEL PRESBYTERIAN CHURCH,CICERO,PRESBYTERIAN CHURCH IN AMERICA,41.85312999964981,-87.77782999995452,IL,6130 W 21ST ST,60804
446,SAINT AGATHA CATHOLIC CHURCH,CHICAGO,ROMAN CATHOLIC CHURCH,41.86215000012248,-87.70500000034968,IL,3147 W DOUGLAS BLVD,60623
447,FALLING ASLEEP EVER VIRGIN MARY,CHICAGO,ORTHODOX CHURCH IN AMERICA,41.95761999966328,-87.76680000031973,IL,4225 N CENTRAL AVE,60634
448,VINEYARD CHRISTIAN CHURCH,EVANSTON,NON-DENOMINATIONAL CHURCHES,42.02195000029235,-87.70812999989954,IL,2495 HOWARD ST,60202
449,LILYDALE FIRST BAPTIST CHURCH,CHICAGO,NATIONAL BAPTIST CONVENTION-USA,41.6886599999591,-87.63467999958226,IL,649 W 113TH ST,60628
450,ST BRONISLAVA'S CH,CHICAGO,ROMAN CATHOLIC CHURCH,41.73563999998606,-87.55193999983106,IL,2944 E 88TH ST,60617
451,TEMPLE OF BROTHERLY LOVE,CHICAGO,PENTECOSTAL - OTHER,41.755039999796224,-87.57937999988707,IL,1843 E 77TH ST,60649
452,HOLY COVENANT MSSNRY BAPT CHR,CHICAGO,BAPTIST - OTHER,41.75682999960486,-87.66748000040167,IL,1733 W 75TH PL,60620
453,PRAYER CHANGES THINGS MINISTRY,CHICAGO,NON CLASSIFIED AFFILIATION,41.78007000023035,-87.63727000031025,IL,6253 S NORMAL BLVD # D,60621
454,LANGLEY AVENUE CHURCH OF GOD,CHICAGO,"CHURCH OF GOD (ANDERSON, IN)",41.78227000006052,-87.60408999995349,IL,6159 S LANGLEY AVE,60637
455,BETHANY BAPTIST CHURCH,CHICAGO,BAPTIST - OTHER,41.8297400002009,-87.67785999973916,IL,3532 S HOYNE AVE,60609
456,NEW LIFE COMMUNITY CHURCH,CHICAGO,NON-DENOMINATIONAL CHURCHES,41.935659999609356,-87.67857999966719,IL,2958 N DAMEN AVE,60618
457,ST MATTHIAS PARISH,CHICAGO,ROMAN CATHOLIC CHURCH,41.97056999970579,-87.68721999970319,IL,2310 W AINSLIE ST,60625
458,HOPE OF GLORY,CHICAGO,FULL GOSPEL FELLOWSHIP,41.69379000000856,-87.65388999962374,IL,1241 W 110TH ST,60643
459,ASSUMPTION GREEK ORTHODOX CHURCH,CHICAGO,GREEK ORTHODOX CHURCH,41.87284000026585,-87.76440000025974,IL,601 S CENTRAL AVE,60644
460,ABUNDANT NEW LIFE CHURCH,CHICAGO,NON CLASSIFIED AFFILIATION,41.90203999964632,-87.76736000006389,IL,5643 W DIVISION ST,60651
461,SAINT JOHN LUTHERAN CHURCH,LINCOLNWOOD,EVANGELICAL LUTHERAN CHURCH IN AMERICA,42.004140000061,-87.7460500003072,IL,4707 W PRATT AVE,60712
462,SAINT MICHAELS HOUSE OF PRAYER,CHICAGO,NON-DENOMINATIONAL CHURCHES,41.7438600004387,-87.65390999964671,IL,8234 S RACINE AVE,60620
463,FIRST IMMANUEL LUTHERAN CHURCH,CHICAGO,LUTHERAN CHURCH - MISSOURI SYNOD,41.8678399999161,-87.66662999987454,IL,1124 S ASHLAND AVE,60607
464,NOTRE DAME DE CHICAGO PARISH,CHICAGO,ROMAN CATHOLIC CHURCH,41.87670000020489,-87.65369999985506,IL,1336 W FLOURNOY ST,60607
465,COVENANT PRESBYTERIAN CHR CHCG,CHICAGO,PRESBYTERIAN CHURCH IN AMERICA,41.9193700002254,-87.67824999973766,IL,2012 W DICKENS AVE,60647
466,LA CASA DEL CARPIDERO,CHICAGO,CHRISTIAN - OTHER,41.911690000393264,-87.70642999974467,IL,1651 N KEDZIE AVE,60647
467,MARANATHA ROMANIAN CHURCH,CHICAGO,BAPTIST - OTHER,41.93538000018691,-87.75186999980059,IL,3010 N LAVERGNE AVE,60641
468,ROMANIAN SEVENTH DAY ADVENTIST,CHICAGO,SEVENTH DAY ADVENTISTS,41.95022000015291,-87.77657000030524,IL,5959 W BERENICE AVE,60634
469,MT ZION APOSTOLIC CHURCH,EVANSTON,APOSTOLIC CHURCHES - OTHER,42.041470000240395,-87.70264999989752,IL,2101 DEMPSTER ST,60201
470,LIGHTHOUSE BAPTIST CHRCHCHCG,CHICAGO,BAPTIST MISSIONARY ASSOCIATION OF AMERICA,41.750720000227886,-87.55251000003642,IL,7945 S EXCHANGE AVE,60617
471,SAINT THOMAS LUTHERAN CHURCH,CHICAGO,EVANGELICAL LUTHERAN CHURCH IN AMERICA,41.74978999960882,-87.57609000015333,IL,8000 S JEFFERY BLVD,60617
472,JEHOVAHS WITNESSES ODGEN PARK,CHICAGO,JEHOVAH'S WITNESSES,41.7657000003548,-87.64480000041965,IL,7046 S HALSTED ST,60621
473,SAINT STEPHEN LUTHERAN CHURCH,CHICAGO,LUTHERAN CHURCH - MISSOURI SYNOD,41.77636000001405,-87.64677999999697,IL,910 W 65TH ST,60621
474,TRINITY LUTHERAN CHURCH,OAK LAWN,EVANGELICAL LUTHERAN CHURCH IN AMERICA,41.71542000013295,-87.7442700000604,IL,9701 BRANDT AVE,60453
475,BURBANK BAPTIST TEMPLE,BURBANK,INDEPENDENT BAPTIST CHURCHES,41.741039999896145,-87.76980000016982,IL,8310 STATE RD,60459
476,WINDY CITY COMMUNITY CHURCH,CHICAGO,INDEPENDENT BIBLE CHURCHES,41.9924699996908,-87.79730000029474,IL,6131 N NEWARK AVE,60631
477,FRIENDSHIP PRESBYTERIAN CHURCH,CHICAGO,PRESBYTERIAN CHURCH (USA),41.99051000013645,-87.79699999995,IL,6088 N NORTHWEST HWY,60631
478,KOREAN GALILEE MTHDST CHURCH,GLENVIEW,UNITED METHODIST CHURCH,42.06768000023186,-87.8051800003567,IL,727 HARLEM AVE,60025
479,ST FRANCES OF ROME PARISH,CICERO,ROMAN CATHOLIC CHURCH,41.86124000042571,-87.77306999988053,IL,1428 S 59TH CT,60804
480,SECRET PLACE CHURCH OF GOD,OAK PARK,"CHURCH OF GOD (CLEVELAND, TN)",41.867010000311325,-87.78437000027526,IL,1151 S RIDGELAND,60304
481,FAITH MIRACLE TEMPLE CHR,CHICAGO,NON CLASSIFIED AFFILIATION,41.897339999641304,-87.73337000012538,IL,4258 W IOWA ST,60651
482,TWELVE GATES,CHICAGO,SOUTHERN BAPTIST CONVENTION,41.902070000130436,-87.75192999986956,IL,5025 W DIVISION ST,60651
483,CONGREGATION BENE SHALOM,SKOKIE, ,42.025979999977096,-87.73934999980258,IL,4435 OAKTON ST,60076
484,ZION EVANGELICAL LUTHERAN CHR,SUMMIT ARGO,EVANGELICAL LUTHERAN CHURCH IN AMERICA,41.7851699997957,-87.81091000019632,IL,5865 S ARCHER RD,60501
485,BURNSIDE CONGREGATION,CHICAGO,JEHOVAH'S WITNESSES,41.7252700002104,-87.59750999958675,IL,9320 S GREENWOOD AVE,60619
486,ROSE OF LIGHT,CHICAGO,SOUTHERN BAPTIST CONVENTION,41.7598100003313,-87.65771000041616,IL,1302 W 74TH ST # 16,60636
487,HYDE PARK CHRISTIAN REFORM CHR,CHICAGO,CHRISTIAN REFORMED CHURCH,41.8010799996423,-87.5864300003442,IL,5144 S CORNELL AVE,60615
488,ST NICHOLAS CATHEDRAL,CHICAGO,ROMAN CATHOLIC CHURCH,41.8969899996888,-87.68321000004141,IL,2238 W RICE ST,60622
489,ALL SAINTS CHURCH EPISCOPAL,CHICAGO,EPISCOPAL CHURCH,41.96495000044223,-87.67294999994249,IL,4550 N HERMITAGE AVE,60640
490,BLESSING CHURCH OF GOD,EVANSTON,"CHURCH OF GOD (ANDERSON, IN)",42.0253299996798,-87.68988999962374,IL,1226 AUSTIN ST # 1,60202
491,SAUGANASH COMMUNITY CHURCH,CHICAGO,NON-DENOMINATIONAL CHURCHES,41.989730000139446,-87.74433000012937,IL,4541 W PETERSON AVE,60646
492,HOLY NATIVITY OF THE LORD CHURCH,CHICAGO,ORTHODOX CHURCH IN AMERICA,41.98685000042724,-87.69922000000298,IL,2820 W ARDMORE AVE,60659
493,CHRIST CATHEDRAL BAPTIST CHR,CHICAGO,BAPTIST - OTHER,41.692189999968605,-87.63462999997449,IL,445 W 111TH ST,60628
494,PARK MANOR BAPTIST CH,CHICAGO,BAPTIST - OTHER,41.74280999968181,-87.64522000000295,IL,8328 S GREEN ST,60620
495,MORE LIKE CHRIST CHRIST,CHICAGO,CHRISTIAN - OTHER,41.70587000040024,-87.53531000005643,IL,1039 E 82ND,60617
496,SPIRITUAL ROCK MSSNRY BAPT CHR,CHICAGO,BAPTIST - OTHER,41.80158999977874,-87.66566999967068,IL,1624 W 51ST ST,60609
497,LINCOLN SQUARE PRESBYTERIAN,CHICAGO,PRESBYTERIAN CHURCH IN AMERICA,41.964209999591844,-87.69133999994102,IL,4540 N CAMPBELL AVE,60625
498,ST NICHOLAS GREEK ORTHODOX CHR,OAK LAWN,GREEK ORTHODOX CHURCH,41.705400000309794,-87.73361000040114,IL,10301 S KOLMAR AVE,60453
499,FIRST CHRISTIAN CHURCH-CHICAGO,CHICAGO,NON-DENOMINATIONAL CHURCHES,41.75010000041476,-87.7131900003182,IL,3600 W 79TH ST,60652
500,FIRST BAPTIST CHURCH OF NILES,NILES,BAPTIST - OTHER,42.01438000013695,-87.80204999990752,IL,7339 N WAUKEGAN RD,60714
501,NEW WAY CHRISTIAN CENTER,CHICAGO,CHRISTIAN & MISSIONARY ALLIANCE,41.922040000145955,-87.78575000006242,IL,2300 N NARRAGANSETT AVE,60639
502,SAINT CORNELIUS CATHOLIC CHURCH,CHICAGO,ROMAN CATHOLIC CHURCH,41.968710000266356,-87.76142999999445,IL,5430 W FOSTER AVE,60630
503,CHURCH OF THE NAZARENE,WORTH,CHURCH OF THE NAZARENE,41.68822000035277,-87.78940999977164,IL,6825 W 112TH ST,60482
504,HOLY TRINITY CHURCH,BURBANK,LUTHERAN CHURCH - MISSOURI SYNOD,41.73453000005952,-87.7939299995698,IL,8659 SAYRE AVE,60459
505,CONCORDIA LUTHERAN CHURCH,BERWYN,LUTHERAN CHURCH - MISSOURI SYNOD,41.83506999958087,-87.79786999960078,IL,3144 HOME AVE,60402
506,SAINT SABINA CATHOLIC CHURCH,CHICAGO,ROMAN CATHOLIC CHURCH,41.75148000020192,-87.65441000022128,IL,1210 W 78TH PL,60620
507,BLOOMING ROSE DELIVERANCE CHR,CHICAGO,NON-DENOMINATIONAL CHURCHES,41.77147999980218,-87.64495000014233,IL,6730 S HALSTED ST,60621
508,NEW ECLIPSE BAPTIST CHURCH,CHICAGO,BAPTIST - OTHER,41.80140000001006,-87.64376000012385,IL,715 W 51ST ST,60609
509,ST MARY OF THE LAKE,CHICAGO,ROMAN CATHOLIC CHURCH,41.95845000016743,-87.65476999973566,IL,4200 N SHERIDAN RD,60613
510,CONGREGATION ANSHE MIZRACH,CHICAGO, ,41.94583999961634,-87.64314000031072,IL,534 W STRATFORD PL,60657
511,UNITY CHURCH IN CHICAGO,CHICAGO,UNITY SCHOOL OF CHRISTIANITY,41.995099999565355,-87.67750999978665,IL,1925 W THOME AVE,60660
512,ST JOHN'S UNITED METHODIST CHR,OAK PARK,UNITED METHODIST CHURCH,41.89086000028885,-87.80305999971915,IL,1100 ONTARIO ST,60302
513,VINEYARD CHRISTIAN FELLOWSHIP,EVANSTON,ASSOCIATION OF VINEYARD CHURCHES,42.050420000182896,-87.68899999995,IL,1800 RIDGE AVE,60201
514,SUPERNATURAL EMPOWERMENT,CHICAGO,NON CLASSIFIED AFFILIATION,41.69432000016792,-87.60525000038717,IL,11033 S LANGLEY AVE,60628
515,SAINT RICHARD CATHOLIC CHURCH,CHICAGO,ROMAN CATHOLIC CHURCH,41.80129999989515,-87.73331999961823,IL,5030 S KOSTNER AVE,60632
516,RISING SUN BAPTIST CHURCH,CHICAGO,BAPTIST MISSIONARY ASSOCIATION OF AMERICA,41.89536000006399,-87.76553999977114,IL,820 N CENTRAL AVE,60651
517,HOLY NAME OF MARY CHURCH,CHICAGO,ROMAN CATHOLIC CHURCH,41.68902000037275,-87.65782999965472,IL,1423 W 112TH PL,60643
518,GREATER WALTERS AME ZION CHR,CHICAGO,AFRICAN METHODIST EPISCOPAL ZION,41.740290000383254,-87.67325999984905,IL,8422 S DAMEN AVE,60620
519,INDIANA AVENUE PENTECOSTAL CHR,CHICAGO,PENTECOSTAL ASSEMBLIES OF THE WORLD,41.830440000105966,-87.62219999963025,IL,3520 S INDIANA AVE,60653
520,CHICAGO SOUTH SHR HISPANIC,CHICAGO,SEVENTH DAY ADVENTISTS,41.82785000027735,-87.67974000010088,IL,3619 S LEAVITT ST,60609
521,STANDING ON THE WORD WORLDWIDE,CHICAGO,NON CLASSIFIED AFFILIATION,41.88448000015194,-87.63150000042464,IL,PO BOX 64337,60664
522,HARVEST CHRISTIAN CENTER,CHICAGO, ,41.964560000443726,-87.65708000014183,IL,4554 N BROADWAY ST STE 228,60640
523,CONCORDIA LUTHERAN CHURCH,CHICAGO,LUTHERAN CHURCH - MISSOURI SYNOD,41.93916000003401,-87.6948899999735,IL,2645 W BELMONT AVE,60618
524,CHRIST STRENGTHENS CHURCH,CHICAGO,NON CLASSIFIED AFFILIATION,41.70392000040772,-87.72033999999098,IL,3939 W 104TH ST # 3A,60655
525,IRVING PARK BAPTIST CHURCH,CHICAGO,AMERICAN BAPTIST CHURCHES/USA,41.95315000037226,-87.7384200000829,IL,4401 W IRVING PARK RD,60641
526,ST HARAAMBOS GREEK ORTHODOX,NILES,GREEK ORTHODOX CHURCH,42.01627999962233,-87.79051000013635,IL,7373 N CALDWELL AVE,60714
527,GOSHEN SEVENTH-DAY ADVENTIST,CHICAGO,SEVENTH DAY ADVENTISTS,41.74471999962833,-87.62403999994598,IL,8221 S STATE ST,60619
528,CHRISTIAN TEMPLE BAPTIST CHR,CHICAGO,BAPTIST - OTHER,41.779199999680316,-87.59507000038019,IL,6344 S KIMBARK AVE,60637
529,MT HERMON MISSIONARY BAPTIST,CHICAGO,BAPTIST MISSIONARY ASSOCIATION OF AMERICA,41.75148000020192,-87.63768000033173,IL,7848 S NORMAL AVE,60620
530,BRIGHT STAR CHURCH OF GOD,CHICAGO,CHURCH OF GOD IN CHRIST,41.8147099995669,-87.60805000000744,IL,735 E 44TH ST # 1,60653
531,SAINTS VOLODYMYR-OLHA,CHICAGO,UKRANIAN ORTHODOX CHURCH,41.894629999674805,-87.68362999962477,IL,2245 W SUPERIOR ST,60612
532,GRACE & GLORY TABERNACLE BC,CHICAGO,NON CLASSIFIED AFFILIATION,41.852259999999035,-87.72512999964971,IL,2140 S PULASKI RD,60623
533,FREEMAN CHURCH OF CHICAGO,CHICAGO,NON CLASSIFIED AFFILIATION,41.92366999977071,-87.76824000017581,IL,5657 W FULLERTON AVE,60639
534,RESURRECTION PARISH,CHICAGO,ROMAN CATHOLIC CHURCH,41.93702000027287,-87.69961000000148,IL,3043 N FRANCISCO AVE,60618
535,BEREAN BIBLE BAPTIST CHURCH,SKOKIE,BAPTIST BIBLE FELLOWSHIP,42.017769999985546,-87.74810999997646,IL,7520 SKOKIE BLVD,60077
536,JEHOVAH'S WITNESSES ELMWOOD,ELMWOOD PARK,JEHOVAH'S WITNESSES,41.92319999968032,-87.80947000034018,IL,7309 W FULLERTON AVE,60707
537,FUENTE DE VIDA EVANGELICAL FREE CHURCH,CHICAGO, ,41.936519999698305,-87.79529000023331,IL,3105 N OAK PARK AVE,60634
538,BODY OF CHRIST MB CHURCH,CHICAGO,BAPTIST MISSIONARY ASSOCIATION OF AMERICA,41.79760999970176,-87.68438999959875,IL,2410 W 53RD ST,60632
539,ST JOSAPHAT PARISH,CHICAGO,ROMAN CATHOLIC CHURCH,41.92370999981671,-87.66264999979762,IL,2311 N SOUTHPORT AVE,60614
540,MISSIO DEI BAPTIST CHURCH,CHICAGO,BAPTIST GENERAL CONFERENCE,41.9474100000715,-87.66086999955081,IL,1242 W ADDISON ST STE 3,60613
541,CENTRAL SPANISH BAPTIST CHURCH,CHICAGO,AMERICAN BAPTIST CHURCHES/USA,41.925519999648316,-87.68975999992404,IL,2417 N CAMPBELL AVE,60647
542,SAINT SYMPHOROSA AND HER SEVEN SONS CHR,CHICAGO,ROMAN CATHOLIC CHURCH,41.78030999960686,-87.77107000028025,IL,6135 S AUSTIN AVE,60638
543,GREATER CHRISTIAN FELLOWSHIP,CHICAGO,BAPTIST MISSIONARY ASSOCIATION OF AMERICA,41.84563000002453,-87.70874000015084,IL,3161 W OGDEN AVE,60623
544,EDISON PARK LUTHERAN CHURCH,CHICAGO,EVANGELICAL LUTHERAN CHURCH IN AMERICA,42.00114000021091,-87.81799999980012,IL,6626 N OLIPHANT AVE,60631
545,CHRIST LUTHERAN CHURCH,OAK PARK,LUTHERAN CHURCH - MISSOURI SYNOD,41.868789999658816,-87.78952999990952,IL,607 HARVARD ST,60304
546,FIRST GRACE BAPTIST CHURCH,CHICAGO,BAPTIST - OTHER,41.867300000194916,-87.72902999963475,IL,4134 W GRENSHAW ST,60624
547,INNER HEALING PRAYER CIRCLE,CHICAGO,NON CLASSIFIED AFFILIATION,41.88181000023138,-87.7653900000484,IL,52 N CENTRAL AVE,60644
548,IGLESIA EVANGELICAL FREE LIBRE SALEM,CHICAGO, ,41.920600000289824,-87.69989999988508,IL,2039 N CALIFORNIA AVE,60647
549,IMMANUEL EVANGELICAL COVENANT CHURCH,CHICAGO,EVANGELICAL COVENANT CHURCH,41.9764900002134,-87.69686999955081,IL,5224 N WASHTENAW AVE,60625
550,NORTH BERWYN CONGREGATIONAL,BERWYN,NON CLASSIFIED AFFILIATION,41.86369000009347,-87.79336000026376,IL,1241 OAK PARK AVE,60402
551,HYDE SOCIETY CHRISTIAN SCIENCE,CHICAGO,CHRISTIAN SCIENCE CHURCHES,41.79167999963232,-87.5900299999845,IL,1438 E 57TH ST,60637
552,MARTIN TEMPLE AME ZION CHURCH,CHICAGO,AFRICAN METHODIST EPISCOPAL ZION,41.76888000041174,-87.60581000013138,IL,6930 S COTTAGE GROVE AVE,60637
553,NEW HOPE LUTHERAN CHURCH,CHICAGO,LUTHERAN CHURCH - MISSOURI SYNOD,41.776729999989584,-87.69125000028725,IL,6416 S WASHTENAW AVE,60629
554,THE CHAPEL AT OLIVE BRANCH,CHICAGO,FREE METHODIST CHURCH OF NORTH AMERICA,41.7789000002349,-87.68255000018235,IL,6310 S CLAREMONT,60636
555,SAINT THOMAS EPISCOPAL CHURCH,CHICAGO,EPISCOPAL CHURCH,41.82543000019439,-87.62438999989854,IL,3801 S WABASH AVE,60653
556,CONGREGATION-SONS,CHICAGO,NON CLASSIFIED AFFILIATION,41.880399999960105,-87.63409999981508,IL,205 W MONROE ST # 8,60606
557,KOINONIA CHRISTIAN CHURCH,CHICAGO,SOUTHERN BAPTIST CONVENTION,41.74284000016593,-87.69677999989705,IL,2948 W 83RD ST,60652
558,UNIVERSAL PRAYER TOWER,CHICAGO,UNITARIAN UNIVERSALIST ASSOCIATION,41.88226999986068,-87.7399499995928,IL,4540 W WASHINGTON BLVD,60624
559,IGLESIA ROCA FUERTE,CHICAGO,NON CLASSIFIED AFFILIATION,41.93171000001655,-87.75334000014084,IL,5044 W DIVERSEY AVE,60639
560,ADIDAM MIDWEST,CHICAGO,NON-DENOMINATIONAL CHURCHES,41.924349999652804,-87.71071999972816,IL,3301 W FULLERTON AVE,60647
561,CONGREGATION EZRAS ISRAEL,CHICAGO, ,42.008490000113454,-87.69965000004743,IL,7001 N CALIFORNIA AVE,60645
562,CHARITY TABERNACLE CHURCH-GOD,CHICAGO,NON CLASSIFIED AFFILIATION,41.726019999723235,-87.60156999975567,IL,924 E 93RD ST,60619
563,CENTRAL ASSEMBLY OF GOD,CHICAGO,ASSEMBLIES OF GOD,41.838300000144955,-87.64702999983461,IL,816 W 31ST ST,60608
564,ST PIUS CHURCH,CHICAGO,ROMAN CATHOLIC CHURCH,41.85554999973277,-87.66562999962474,IL,1919 S ASHLAND AVE,60608
565,BETHEL MENNONITE CHURCH,CHICAGO,MENNONITE CHURCH USA,41.86213999966128,-87.66424000027575,IL,1434 S LAFIN,60608
566,NORTH SIDE TABERNACLE-PRAISE,CHICAGO,"CHURCH OF GOD (ANDERSON, IN)",41.99389999998505,-87.69185999963923,IL,2447 W GRANVILLE AVE,60659
567,NEW MIRACLE TEMPLE CHURCH,CHICAGO,EVANGELICAL - OTHER,41.901920000407756,-87.7630700000804,IL,5455 W DIVISION ST,60651
568,AMBASSADOR OF CHRIST,CHICAGO,NON CLASSIFIED AFFILIATION,41.92670000010497,-87.75660000028972,IL,2524 N LARAMIE AVE,60639
569,CENTRAL UNITED METHODIST CHR,SKOKIE,UNITED METHODIST CHURCH,42.03090000023485,-87.74219000036817,IL,8237 KENTON AVE,60076
570,SAINT MATTHEW AME CHURCH,SUMMIT ARGO,AFRICAN METHODIST EPISCOPAL CHURCH,41.774650000297356,-87.80639000039815,IL,7412 W 64TH PL,60501
571,LIFE REDEEMING MINISTRIES,CHICAGO,NON CLASSIFIED AFFILIATION,41.75916999959588,-87.57100999971169,IL,2200 E 75TH ST,60649
572,ZION TEMPLE CHR-GOD IN CHRIST,CHICAGO,CHURCH OF GOD IN CHRIST,41.75054000002103,-87.66796000005394,IL,1754 W 79TH ST,60620
573,TRAVELER REST MSSNRY BAPT CHR,CHICAGO,BAPTIST - OTHER,41.76831999976821,-87.66217000014535,IL,1515 W 69TH ST,60636
574,COPPIN MEMORIAL AME,CHICAGO,AFRICAN METHODIST EPISCOPAL CHURCH,41.79193000036929,-87.62192000020781,IL,5633 S MICHIGAN AVE,60637
575,TRUTH WITHOUT WALLS MINISTRY,CHICAGO,NON CLASSIFIED AFFILIATION,41.8144700001904,-87.59524999968772,IL,4435 S OAKENWALD AVE,60653
576,HEALING TEMPLE CHR-GOD-CHRIST,CHICAGO,CHURCH OF GOD IN CHRIST,41.863819999793236,-87.6948899999735,IL,1330 S FAIRFIELD AVE,60608
577,GREATER BETHLEHEM HEALING,CHICAGO,EVANGELICAL - OTHER,41.88056000014393,-87.68438999959875,IL,12 S OAKLEY BLVD,60612
578,ST JOHN'S UNITED CHR OF CHRIST,EVANSTON,UNITED CHURCH OF CHRIST,42.03915999983417,-87.69256000044362,IL,1136 WESLEY AVE,60202
579,SAINT AGNES OF BOHEMIA CATHOLIC CHURCH,CHICAGO,ROMAN CATHOLIC CHURCH,41.84304999975774,-87.71440999992154,IL,2651 S CENTRAL PARK AVE,60623
580,NER TAMID CONGREGATION,CHICAGO, ,41.99603000018442,-87.69924000002595,IL,2754 W ROSEMONT AVE,60659
581,MARTIN LUTHER LUTHERAN CHURCH,CHICAGO,EVANGELICAL LUTHERAN CHURCH IN AMERICA,41.945700000354805,-87.79808000029175,IL,6850 W ADDISON ST,60634
582,MT NEBO BAPTIST CHURCH,CHICAGO,SOUTHERN BAPTIST CONVENTION,41.76583000005451,-87.63428000002193,IL,354 W 71ST ST,60621
583,WEST ENGLAND UNITED MTHDST CHR,CHICAGO,UNITED METHODIST CHURCH,41.77051999959838,-87.67399000023829,IL,2000 W 68TH ST,60636
584,TRUE-WAY APOSTOLIC FAITH CHR,CHICAGO,NON CLASSIFIED AFFILIATION,41.7805400003208,-87.61387000040014,IL,444 E 63RD ST,60637
585,EGLESIA RIOS DE AGUA VIVA EN,CHICAGO,NON CLASSIFIED AFFILIATION,41.80098999998859,-87.69043999980613,IL,2637 W 51ST ST,60632
586,ADALBERTO MEMORIAL,CHICAGO,UNITED METHODIST CHURCH,41.90324999968777,-87.69519999988006,IL,2716 W DIVISION ST # 2,60622
587,EMMANUEL EVANSTON UNITED,EVANSTON,UNITED METHODIST CHURCH,42.042629999774704,-87.68680999968171,IL,1401 OAK AVE,60201
588,NORWEGIAN LUTHERAN HOME,CHICAGO,LUTHERAN - OTHER,41.93234999985265,-87.80221999965323,IL,2833 N NORDICA AVE,60634
589,TORRE FUERTE CHURCH OF GOD,OAK PARK,"CHURCH OF GOD (ANDERSON, IN)",41.867010000311325,-87.78437000027526,IL,1151 S RIDGELAND AVE,60304
590,MT EBENZER BAPTIST CHURCH,CHICAGO,BAPTIST - OTHER,41.85981000013146,-87.71366999997048,IL,1533 S DRAKE AVE,60623
591,GREATER HOLY TEMPLE CHR OF GOD,CHICAGO,CHURCH OF GOD IN CHRIST,41.88567000017042,-87.69683999996602,IL,246 N CALIFORNIA AVE,60612
592,MISSION OF CHRIST EVANGELICAL LUTHERAN,CHICAGO,EVANGELICAL LUTHERAN CHURCH IN AMERICA,41.90457000030534,-87.72869000014333,IL,1345 N KARLOV AVE,60651
593,CHURCH OF THE RESURRECTION,CHICAGO,NON CLASSIFIED AFFILIATION,41.925499999625345,-87.7059100000464,IL,2446 N ALBANY AVE,60647
594,GRACE EPISCOPAL CHURCH,OAK PARK,EPISCOPAL CHURCH,41.889200000179926,-87.79841000022128,IL,924 LAKE ST # 2,60301
595,SHEKINAH CHAPEL,CHICAGO,NON CLASSIFIED AFFILIATION,41.70793999963132,-87.65601999982312,IL,PO BOX 438578,60643
596,HOLY BETHEL CHRISTIAN CHURCH,CHICAGO,NON-DENOMINATIONAL CHURCHES,41.75833999999105,-87.60246000032873,IL,909 E 75TH ST,60619
597,GREATER INSTITUTIONAL AME CHR,CHICAGO,AFRICAN METHODIST EPISCOPAL CHURCH,41.75285000042726,-87.61995999975414,IL,7800 S INDIANA AVE,60619
598,LIFE CHURCH MIDWEST ASSEMBLY OF GOD,CHICAGO, ,41.823480000201926,-87.66728999973367,IL,1650 W PERSHING RD,60609
599,2ND PRESBYTERIAN CHURCH,CHICAGO,PRESBYTERIAN CHURCH (USA),41.85593000016945,-87.62436999987557,IL,1936 S MICHIGAN AVE # 211,60616
600,PENIEL CHURCH OF GOD,CHICAGO,"CHURCH OF GOD (CLEVELAND, TN)",41.90328999973377,-87.69098999998846,IL,2536 W DIVISION ST,60622
601,ST GERTRUDES CHURCH,CHICAGO,ROMAN CATHOLIC CHURCH,41.99465000039726,-87.66564000008589,IL,1420 W GRANVILLE AVE,60660
602,APOSTOLIC CATHOLIC ASSYRIAN,CHICAGO,ROMAN CATHOLIC CHURCH,42.013099999565384,-87.66986000043863,IL,7201 N ASHLAND BLVD,60626
603,HARRY CARAY'S SEVENTH INNING,CHICAGO,NON CLASSIFIED AFFILIATION,41.78758000031684,-87.74119999968019,IL,5757 S CICERO AVE,60638
604,ST BRUNO CHURCH,CHICAGO,ROMAN CATHOLIC CHURCH,41.806969999665796,-87.72198000007688,IL,4751 S HARDING AVE,60632
605,FAMILY ALTAR BAPTIST CHURCH,CHICAGO,BAPTIST - OTHER,41.894549999582864,-87.76828999978363,IL,5907 W CHICAGO AVE,60651
606,GRACE EPISCOPAL CHURCH,CHICAGO,EPISCOPAL CHURCH,41.87350000012498,-87.62888999967373,IL,637 S DEARBORN ST,60605
607,MIDWEST REGION SYNAGOGUE,CHICAGO, ,41.88552000044774,-87.62496999966572,IL,180 N MICHIGAN AVE,60601
608,UPTOWN BAPTIST CHURCH,CHICAGO,SOUTHERN BAPTIST CONVENTION,41.96535000000256,-87.65558999977861,IL,1011 W WILSON AVE,60640
609,MASJID AL TAQWA,CHICAGO, ,41.975460000378746,-87.65457000040516,IL,5101 N SHERIDAN RD,60640
610,SISTERS OF MERCY ADMIN CTR,CHICAGO,ROMAN CATHOLIC CHURCH,41.71090000033479,-87.71210999997646,IL,10024 S CENTRAL PARK AVE,60655
611,ST MARY STAR OF THE SEA CHURCH,CHICAGO,ROMAN CATHOLIC CHURCH,41.77580000026984,-87.73452999965974,IL,6435 S KILBOURN AVE,60629
612,ALL SAINTS ORTHODOX CHURCH,CHICAGO,ANTIOCHIAN ORTHODOX CHRISTIAN,41.943750000362286,-87.73041999988305,IL,4129 W NEWPORT AVE,60641
613,FULL GOSPEL HOLINESS CHURCH,CHICAGO,PENTECOSTAL - OTHER,41.68956000009399,-87.62740000020983,IL,143 W 112TH PL,60628
614,GREATER RISING SUN BAPTIST,CHICAGO,BAPTIST - OTHER,41.731530000209375,-87.5439300000694,IL,9015 S BUFFALO AVE,60617
615,ST LUKE BAPTIST CHURCH,CHICAGO,NATIONAL BAPTIST CONVENTION-USA,41.76371000031634,-87.56238999969867,IL,7262 S COLES AVE,60649
616,CANAAN BAPTIST CHURCH,CHICAGO,NATIONAL BAPTIST CONVENTION-USA,41.7729700001654,-87.63278999965871,IL,6659 S HARVARD AVE,60621
617,SS PETER & PAUL PARISH,CHICAGO,ROMAN CATHOLIC CHURCH,41.82547000024039,-87.66734000024076,IL,3745 S PAULINA ST,60609
618,VICTORY CATHEDRAL MINISTRY,CHICAGO,NON-DENOMINATIONAL CHURCHES,41.703889999923604,-87.65203999974614,IL,10441 S RACINE AVE,60643
619,FIRST UNITED MTHDST CHR,EVERGREEN PARK,UNITED METHODIST CHURCH,41.72326000014897,-87.70691000029626,IL,9358 S HOMAN AVE,60805
620,NEW ST MATTHEW'S MB CHURCH,CHICAGO,NON CLASSIFIED AFFILIATION,41.87313999971127,-87.76280000021978,IL,5530 W HARRISON ST,60644
621,NEW TRUE VINE BAPTIST CHURCH,CHICAGO,SOUTHERN BAPTIST CONVENTION,41.89739000014845,-87.72335000030222,IL,901 N SPRINGFIELD AVE,60651
622,MASJID E KAUSAR,CHICAGO, ,41.96379999957037,-87.70478999965871,IL,4542 N WHIPPLE,60625
623,SAINT ATHANASIUS CATHOLIC CHURCH,EVANSTON,ROMAN CATHOLIC CHURCH,42.06261000025137,-87.69468999974367,IL,1615 LINCOLN ST,60201
624,SACRED HEART CHURCH,PALOS HILLS,ROMAN CATHOLIC CHURCH,41.68818000030683,-87.821259999949,IL,8245 W 111TH ST,60465
625,NEW LIFE ARABIC ALLIANCE CHURCH,HICKORY HILLS,CHRISTIAN & MISSIONARY ALLIANCE,41.71874999991263,-87.82821999985305,IL,8426 W 95TH ST,60457
626,FREEDOM TEMPLE CHR-GOD,CHICAGO,PENTECOSTAL - OTHER,41.75873999955138,-87.66129999959526,IL,1459 W 74TH ST,60636
627,CHRIST HOLY ANOINTED ONE,CHICAGO,NON CLASSIFIED AFFILIATION,41.77900000034981,-87.67600000029972,IL,2053 W 63RD ST,60636
628,CHRIST CHAPEL MB CHURCH,CHICAGO,BAPTIST - OTHER,41.77118999991859,-87.65462999957481,IL,6734 S RACINE AVE,60636
629,LIBERTY BAPTIST CHURCH,CHICAGO,PROGRESSIVE NATIONAL BAPTIST CONVENTION,41.805939999831196,-87.61587000000048,IL,4849 S KING DR,60615
630,ST MARK CATHOLIC PARISH,CHICAGO,ROMAN CATHOLIC CHURCH,41.90075999997407,-87.68957000015536,IL,1048 N CAMPBELL AVE,60622
631,CHICAGO JODO SHU TEMPLE,EVANSTON,"BUDDHIST TEMPLES, ZEN",42.03197000011545,-87.69345000011737,IL,1507 MADISON ST,60202
632,TANNENBAUM CHABAD HOUSE,EVANSTON, ,42.054469999890614,-87.68029999984509,IL,2014 ORINGTON,60201
633,UNITED IN FAITH LUTHERAN CHR,CHICAGO,EVANGELICAL LUTHERAN CHURCH IN AMERICA,41.952509999636845,-87.78987000030025,IL,6525 W IRVING PARK RD,60634
634,BETH HILLEL CONGREGATION,WILMETTE, ,42.06957999971729,-87.75549999992501,IL,3220 BIG TREE LN,60091
635,LIVING STONE CHRISTIAN CHURCH,EVANSTON,CHRISTIAN CHURCH (DISCIPLES OF CHRIST),42.06772000027786,-87.72893999998098,IL,2727 CRAWFORD AVE,60201
636,ST JOSEPHS CATHOLIC CHURCH,WILMETTE,ROMAN CATHOLIC CHURCH,42.078629999774705,-87.72155000003244,IL,1747 LAKE AVE,60091
637,ROOM AT THE CROSS,CHICAGO,NON CLASSIFIED AFFILIATION,41.736159999684276,-87.65975000006239,IL,1432 W 87TH ST,60620
638,COMMUNITY FAITH M B CHURCH,CHICAGO,BAPTIST - OTHER,41.74040000005999,-87.65708999970371,IL,1104 W 79TH ST,60620
639,CHICAGO SION FRENCH SEVENTH,CHICAGO,SEVENTH DAY ADVENTISTS,41.74637000017543,-87.54830000014488,IL,8200 S SOUTH SHORE DR,60617
640,POWELL ENTERPRISES,CHICAGO,CHRISTIAN - OTHER,41.722409999621846,-87.57141000017134,IL,2159 E 95TH ST,60617
641,MOUNT ZION BAPTIST CHURCH,CHICAGO,BAPTIST - OTHER,41.81131999971825,-87.62383999971615,IL,56 E 46TH ST,60653
642,MOUNT ZION LUTHERAN CHURCH,OAK LAWN,EVANGELICAL LUTHERAN CHURCH IN AMERICA,41.70343999985619,-87.731279999972,IL,10400 S KOSTNER AVE,60453
643,MARANATHA ASSEMBLY OF GOD,CHICAGO,ASSEMBLIES OF GOD,41.7862100000915,-87.71235999981411,IL,3542 W 59TH ST,60629
644,FAITH CHAPEL TAPING MINISTRIES,BERWYN,NON CLASSIFIED AFFILIATION,41.828180000206885,-87.78924000002593,IL,6630 OGDEN AVE,60402
645,ALPHA & OMEGA MISSIONARY BAPT,CHICAGO,BAPTIST MISSIONARY ASSOCIATION OF AMERICA,41.87676999983569,-87.73070000020482,IL,4201 W JACKSON BLVD,60624
646,SHILOH MISSIONARY BAPTIST CHURCH,CHICAGO,BAPTIST - OTHER,41.879960000353776,-87.70531000025625,IL,3162 W MONROE ST,60612
647,MACEDONIA M B CHR OF CHICAGO,CHICAGO,NON CLASSIFIED AFFILIATION,41.7252300001644,-87.6054299996947,IL,9315 S EVANS AVE,60619
648,CHATHAM-AVALON CHR OF CHRIST,CHICAGO,CHURCHES OF CHRIST (NON-INSTRUMENTAL),41.738040000046,-87.62356999985559,IL,8601 S STATE ST,60619
649,ST MARK CHURCH-GOD IN CHRIST,CHICAGO,CHURCH OF GOD IN CHRIST,41.727439999556395,-87.59335999976412,IL,9201 S AVALON AVE,60619
650,ST PAUL EVANGELICAL LUTH CHR,CHICAGO,EVANGELICAL LUTHERAN CHURCH IN AMERICA,41.75632000036779,-87.59060999975168,IL,7621 S DORCHESTER AVE,60619
651,IGLESIA PACTO EVANGELICO DOUGLAS PARK,CHICAGO,EVANGELICAL COVENANT CHURCH,41.85127000021038,-87.69429000018334,IL,2750 W 22ND PL,60608
652,NEW UPPER ROOM BAPTIST CHURCH,CHICAGO,BAPTIST MISSIONARY ASSOCIATION OF AMERICA,41.86623000031432,-87.69390000018484,IL,2709 W ROOSEVELT RD,60608
653,ST ANDREW CHURCH,CHICAGO,ROMAN CATHOLIC CHURCH,41.9465600004437,-87.67140000040968,IL,3546 N PAULINA ST,60657
654,FELLOWSHIP FRE CHRISTIAN,CHICAGO,EVANGELICAL - OTHER,41.940000000099985,-87.65260000038967,IL,3425 N OAMEN AVE,60657
655,SAINT GERTRUDE CATHOLIC CHURCH,CHICAGO,ROMAN CATHOLIC CHURCH,41.98460999965181,-87.65667999968218,IL,1400 W GRANVILLE AVE,60660
656,CHRISTIAN FAMILY FAITH CTR,CHICAGO,CHRISTIAN - OTHER,41.69931000005653,-87.62843000004443,IL,10714 S WENTWORTH AVE,60628
657,BIBLE DELIVERANCE TEMPLE CHR,CHICAGO,DELIVERANCE CHURCHES,41.746149999922636,-87.58292999991954,IL,1724 E 82ND ST,60617
658,GREATER SALEM BAPTIST CHURCH,CHICAGO,NATIONAL BAPTIST CONVENTION-USA,41.765199999780236,-87.63066000035872,IL,215 W 71ST ST,60621
659,MT CARMEL CHILD-GOD BAPT CHR,CHICAGO,SOUTHERN BAPTIST CONVENTION,41.800080000291814,-87.6740900003532,IL,5141 S DAMEN AVE,60609
660,LIFE CENTER COGIC,CHICAGO,CHURCH OF GOD IN CHRIST,41.79409000015346,-87.62130999995651,IL,5500 S INDIANA AVE,60637
661,ST JUDE CHURCH-GOD IN CHRIST,CHICAGO,CHURCH OF GOD IN CHRIST,41.88080999998158,-87.7522599997991,IL,5052 W MADISON ST,60644
662,LIVING CHRIST MSSNRY BAPT CHR,CHICAGO,BAPTIST - OTHER,41.89468000018189,-87.74905999971918,IL,4917 W CHICAGO AVE,60651
663,INTERNATIONAL PENTECOSTAL,CHICAGO,INTERNATIONAL PENTECOSTAL CHURCH OF CHRIST,41.97592999956987,-87.78345999967922,IL,6200 W FOSTER AVE,60630
664,RIVERS-LIVING WATER CHRISTIAN,CHICAGO,NON-DENOMINATIONAL CHURCHES,41.98150000012498,-87.70917999975717,IL,5500 N KEDZIE AVE,60625
665,CARTER-WESTMINISTER UNITED PRESBY CHR,SKOKIE,PRESBYTERIAN CHURCH (USA),42.004550000082475,-87.75221999975315,IL,4950 PRATT AVE W,60077
666,BRIDGEVIEW CHURCH OF GOD,BRIDGEVIEW,"CHURCH OF GOD (CLEVELAND, TN)",41.76189000002353,-87.81514999967271,IL,7801 W 71ST ST,60455
667,ST LUKE PARISH,RIVER FOREST,ROMAN CATHOLIC CHURCH,41.88930000029484,-87.81477999969718,IL,7600 W LAKE ST,60305
668,SAINT CELESTINE CATHOLIC CHURCH,ELMWOOD PARK,ROMAN CATHOLIC CHURCH,41.93497999972726,-87.81774999996247,IL,3020 N 76TH CT,60707
669,KINGDOM HALL JEHOVAHS WITNESSES,CHICAGO,JEHOVAH'S WITNESSES,41.751770000085514,-87.55528000007189,IL,2833 E 79TH ST,60649
670,BY-FAITH CHURCH,CHICAGO,BAPTIST - OTHER,41.765460000078974,-87.6634499998176,IL,7043 S ASHLAND AVE,60636
671,NEW BIRTH CHURCH OF GOD,CHICAGO,CHURCH OF GOD IN CHRIST,41.77761999966333,-87.66701000031122,IL,1504 W 69TH ST,60636
672,SAINT JEROME CATHOLIC CHURCH,CHICAGO,ROMAN CATHOLIC CHURCH,41.84214000006102,-87.63386000043863,IL,2823 S PRINCETON AVE,60616
673,THE WAY BIBLE CHURCH,CHICAGO,SOUTHERN BAPTIST CONVENTION,41.90650999983666,-87.69168999989353,IL,1359 N ROCKWELL,60622
674,ST JAMES LUTHERAN CHURCH,CHICAGO,LUTHERAN CHURCH - MISSOURI SYNOD,41.920199999830174,-87.65078000009692,IL,2101 N FREMONT ST,60614
675,PORTAGE PARK GOSPEL CHAPEL,CHICAGO,PLYMOUTH BRETHREN,41.95248999961382,-87.76771000001645,IL,5614 W DAKIN ST,60634
676,YOUNG ISRAEL OF WEST ROGERS PARK,CHICAGO, ,42.012379999637346,-87.69807999959227,IL,2716 TOUHY AVE,60645
677,SHEIL CATHOLIC CTR,EVANSTON,ROMAN CATHOLIC CHURCH,42.055909999746746,-87.67768999999345,IL,2110 SHERIDAN RD,60201
678,COMMUNITY CHURCH OF WILMETTE,WILMETTE,AMERICAN BAPTIST CHURCHES/USA,42.0805700002054,-87.70410999977662,IL,1020 FOREST AVE,60091
679,CROSS FELLOWSHIP UNITED PENTECOSTAL CHR,CHICAGO,UNITED PENTECOSTAL CHURCH,41.917300000095,-87.68951000008639,IL,2455 W ARMITAGE,60647
680,EVANSTON EVANGELICAL FREE CHURCH,EVANSTON, ,42.04867000042026,-87.68460000028972,IL,1715 MAPLE AVE,60201
681,CAROL DIVINE TEMPLE COGIC,CHICAGO,CHURCH OF GOD IN CHRIST,41.860490000013556,-87.71682000044262,IL,1508 S MILLARD AVE,60623
682,WORK OF HIS HANDS MINISTRIES,CHICAGO,NON-DENOMINATIONAL CHURCHES,41.863739999701295,-87.7254599995793,IL,1318 S PULASKI RD,60623
683,NEW GREATER EXODUS MSSNRY BAPT,CHICAGO,NATIONAL BAPTIST CONVENTION-USA,41.87851999959838,-87.69893000011939,IL,2900 W ADAMS ST,60612
684,EUCLID AVE UNITED MTHDST CHR,OAK PARK,UNITED METHODIST CHURCH,41.881050000257346,-87.79275000001246,IL,405 S EUCLID AVE,60302
685,APOSTOLIC LITTLE ROCK CHURCH,CHICAGO,PENTECOSTAL - OTHER,41.74783999961636,-87.66375999972416,IL,8020 S ASHLAND AVE,60620
686,CHURCH-THE THREE CROSSES UCC,CHICAGO,UNITED CHURCH OF CHRIST,41.916299999845194,-87.63787999966223,IL,333 W WISCONSIN ST,60614
687,SECOND UNITARIAN CHR-CHICAGO,CHICAGO,UNITARIAN UNIVERSALIST ASSOCIATION,41.93819000026838,-87.64649000011337,IL,656 W BARRY AVE,60657
688,UNITY EVANGELICAL LUTHERAN CHURCH,CHICAGO,EVANGELICAL LUTHERAN CHURCH IN AMERICA,41.97099000018841,-87.66108000024178,IL,5401 N MAGNOLIA AVE,60640
689,ST MARGARET MARY'S ACTIVITY,CHICAGO,ROMAN CATHOLIC CHURCH,42.01485999978922,-87.68848999981361,IL,7341 N CLAREMONT AVE,60645
690,NEW LIFE COMMUNITY CHURCH,CHICAGO,NON-DENOMINATIONAL CHURCHES,41.80045999982917,-87.72577999994701,IL,4101 W 51ST ST,60632
691,SANCTUARY OF DELIVERANCE COGIC,CHICAGO,CHURCH OF GOD IN CHRIST,41.858880000411716,-87.71652000009789,IL,3637 W 16TH ST,60623
692,JESUS CHRIST HOLY M B CHURCH,CHICAGO,BAPTIST - OTHER,41.86730999975674,-87.72797999977712,IL,4104 W GRENSHAW ST,60624
693,INSTITUTE BIBLICO INTL,CHICAGO,PENTECOSTAL - OTHER,41.91167000037029,-87.7130900002033,IL,3435 W WABANSIA AVE,60647
694,IGLESIA EVANGLICA BAUSTISTA EL GOLGOTA,CHICAGO,BAPTIST GENERAL CONFERENCE,41.91627000026034,-87.74751000018631,IL,4832 W HOMER ST #1A,60639
695,NORTHWEST CHURCH OF CHRIST,CHICAGO,CHRISTIAN & CHURCHES OF CHRIST,41.96459999959035,-87.74187999956229,IL,4602 N KILBOURN AVE,60630
696,A PASSION FOR CHRIST MINISTRIES,CHICAGO,NON-DENOMINATIONAL CHURCHES,41.7660500003073,-87.56938000008688,IL,2253 E 71ST ST,60649
697,FAITH TABERNACLE APOSTOLIC,CHICAGO,APOSTOLIC OVERCOMING HOLY CHURCH,41.75965000014742,-87.60332000041763,IL,7426 S DREXEL AVE,60619
698,ST PETER'S ROCK MSSNRY BAPIST,CHICAGO,BAPTIST - OTHER,41.754850000027545,-87.64452000009788,IL,7640 S HALSTED ST,60620
699,WAY OF TRUTH BAPTIST CHURCH,CHICAGO,BAPTIST - OTHER,41.775640000086014,-87.69365999990902,IL,6456 S CALIFORNIA AVE,60629
700,HYDE PARK VINEYARD CHRISTIAN CHURCH,CHICAGO,ASSOCIATION OF VINEYARD CHURCHES,41.795449999917594,-87.59967999983206,IL,1100 E 55TH ST,60615
701,PEOPLES CHURCH OF CHICAGO UCC,CHICAGO,UNITED CHURCH OF CHRIST,41.968980000126976,-87.65361999976312,IL,941 W LAWRENCE AVE # 5,60640
702,ST JAMES EVANGELICAL LUTH CHR,CHICAGO,EVANGELICAL LUTHERAN CHURCH IN AMERICA,41.974480000151914,-87.81202000012286,IL,7400 W FOSTER AVE,60656
703,GOOD SHEPHERD PRESBYTERIAN CHR,CHICAGO,PRESBYTERIAN CHURCH (USA),41.791360000163934,-87.778239999976,IL,5550 S MERRIMAC AVE,60638
704,REVELATION CHURCH-GOD IN CHRST,CHICAGO,"CHURCH OF GOD (CLEVELAND, TN)",41.8594600001789,-87.70513999961128,IL,1567 S KEDZIE AVE,60623
705,ROCK OF OUR SALVATION CHURCH,CHICAGO,EVANGELICAL FREE CHURCH,41.882730000389245,-87.76543999965622,IL,118 N CENTRAL AVE,60644
706,NEW TABERNACLE OF FAITH BAPTIST CHURCH,CHICAGO,SOUTHERN BAPTIST CONVENTION,41.891319999918096,-87.70607999979211,IL,531 N KEDZIE AVE,60612
707,MAKKI MASJID,CHICAGO, ,41.970390000398254,-87.7143000002448,IL,3418 W AINSLIE ST,60625
708,ST LOUIS ROSALIE ROMAN,HARWOOD HEIGHTS,ROMAN CATHOLIC CHURCH,41.96149000006352,-87.79753000010936,IL,4401 N OAK PARK AVE,60706
709,PILGRIM REST MB CHURCH,CHICAGO,SOUTHERN BAPTIST CONVENTION,41.8831099999266,-87.67436000021382,IL,1901 W WASHINGTON BLVD # 5,60612
710,CHURCH OF CHRIST,BERWYN,CHRISTIAN & CHURCHES OF CHRIST,41.85985999973923,-87.78390999974664,IL,1500 RIDGELAND AVE,60402
711,OAKWOOD CONGREGATION-JEHOVAH,CHICAGO,JEHOVAH'S WITNESSES,41.76583999961633,-87.59304999985756,IL,1315 E 71ST ST,60619
712,LAKE VIEW LUTHERAN CHURCH,CHICAGO,EVANGELICAL LUTHERAN CHURCH IN AMERICA,41.947229999864646,-87.65076000007389,IL,835 W ADDISON ST,60613
713,ST PIUS X CHURCH RECTORY,BERWYN,CONVENTS/RECTORIES/MONASTERIES,41.81455000028234,-87.79272999998949,IL,4300 OAK PARK AVE,60402
714,TEMPLES OF DELIVERANCE INC,CHICAGO,NON CLASSIFIED AFFILIATION,41.88175000016241,-87.72610000031472,IL,4007 W WASHINGTON BLVD,60624
715,ST JOHN BOSCO PARISH,CHICAGO,ROMAN CATHOLIC CHURCH,41.92255000028234,-87.77725000018734,IL,2250 N MCVICKER AVE,60639
716,SMITH-CORCORAN CHAPEL,CHICAGO,NON CLASSIFIED AFFILIATION,41.99273999955142,-87.74895000004244,IL,6150 N CICERO AVE,60646
717,CHICAGO MYUNG SUNG PRESBYTERIAN CHURCH,CHICAGO,PRESBYTERIAN CHURCH (USA),41.99057999976725,-87.7000899996537,IL,2814 W PETERSON AVE,60659
718,ST MICHAEL PARISH,CHICAGO,ROMAN CATHOLIC CHURCH,41.74547000004054,-87.54779000000843,IL,8235 S SOUTH SHORE DR,60617
719,SACRED HEART CATHOLIC CHURCH,CHICAGO,ROMAN CATHOLIC CHURCH,41.720969999765714,-87.55450999963676,IL,2864 E 96TH ST,60617
720,SAINT JOHN CANTIUS CATHOLIC CHURCH,CHICAGO,ROMAN CATHOLIC CHURCH,41.89698000012697,-87.65308999960376,IL,825 N CARPENTER ST,60642
721,GETHSEMANE LUTHERAN CHURCH,CICERO,EVANGELICAL LUTHERAN CHURCH IN AMERICA,41.85418999996858,-87.7491300002493,IL,1937 S 50TH AVE,60804
722,CENTRO CRISTIANO MONTE DE LOS,CICERO,NON CLASSIFIED AFFILIATION,41.86209999961534,-87.74620999959177,IL,1400 S 48TH CT,60804
723,EMANUEL SPANISH CHR OF THE NAZARENE,CHICAGO,CHURCH OF THE NAZARENE,41.95863999993611,-87.69874000035071,IL,4232 N CALIFORNIA AVE,60618
724,LOVE ABIDE MISSIONARY BAPT CHR,CHICAGO,BAPTIST MISSIONARY ASSOCIATION OF AMERICA,41.6871300004492,-87.62126999991051,IL,11354 S MICHIGAN AVE,60628
725,SALEM BAPTIST CHURCH,CHICAGO,BAPTIST - OTHER,41.71002000022287,-87.61905000005743,IL,10126 S INDIANA AVE,60628
726,CHRIST THE KING,CHICAGO,ROMAN CATHOLIC CHURCH,41.725809999931585,-87.67569000039316,IL,9235 S HAMILTON AVE,60643
727,GOSPEL WAY COVENANT CHURCH,CHICAGO,EVANGELICAL COVENANT CHURCH,41.74657000040526,-87.56043000014438,IL,8152 S SAGINAW AVE,60617
728,HILLTOP BIBLE CHURCH,CHICAGO RIDGE,GRACE GOSPEL FELLOWSHIP,41.700850000027515,-87.78804000044562,IL,6736 105TH ST,60415
729,LILYDALE PROGRESSIVE BAPTIST,CHICAGO,PROGRESSIVE NATIONAL BAPTIST CONVENTION,41.69976999968577,-87.62184000011587,IL,10706 S MICHIGAN AVE,60628
730,MOST HOLY REDEEMER CATHOLIC CHURCH,EVERGREEN PARK,ROMAN CATHOLIC CHURCH,41.72026000029882,-87.71379999967019,IL,9525 S LAWNDALE AVE,60805
731,DIVINE REDEEMER PRESBYTERIAN,BURBANK,PRESBYTERIAN/REFORMED - OTHER,41.7449700003653,-87.76924000042567,IL,7950 S CICERO AVE,60459
732,AGUDATH IRSAEL OF ILLINOIS,SKOKIE,NON CLASSIFIED AFFILIATION,42.01725999984916,-87.71648000005194,IL,7508 SAINT LOUIS AVE,60076
733,ABUNDANT GRACE ASSEMBLY,CHICAGO,APOSTOLIC CHURCHES - OTHER,41.69249000031334,-87.6538499995778,IL,1242 W 111TH ST,60643
734,SAINT JOACHIM CATHOLIC CHURCH,CHICAGO,ROMAN CATHOLIC CHURCH,41.72942000003303,-87.60708000024181,IL,700 E 91ST ST,60619
735,WAY-HOLINESS CHR-GOD & CHRIST,CHICAGO,NON CLASSIFIED AFFILIATION,41.798320000067974,-87.62137999958725,IL,5258 S INDIANA AVE,60615
736,NEW WINE ASSEMBLY,CHICAGO,ASSEMBLIES OF GOD,41.97678999965882,-87.68940999997147,IL,5232 N WESTERN AVE,60625
737,NORTHSIDE CHURCH OF GOD,CHICAGO,"CHURCH OF GOD (ANDERSON, IN)",41.97594999959284,-87.65946000017885,IL,5145 N BROADWAY ST,60640
738,CHRISTIAN FELLOWSHIP CHURCH,CHICAGO,NON CLASSIFIED AFFILIATION,41.786120000437734,-87.7287500002123,IL,4220 W 59TH ST,60629
739,TABERNACLE OF ISRAEL,CHICAGO,NON CLASSIFIED AFFILIATION,41.870130000299355,-87.74525999984905,IL,800 S CICERO AVE,60644
740,SAINT MARY CATHOLIC CHURCH,RIVERSIDE,ROMAN CATHOLIC CHURCH,41.83054000022088,-87.81637999973714,IL,126 HERRICK RD,60546
741,NEW HORIZON TEMPLE,ELMWOOD PARK,PENTECOSTAL - OTHER,41.93277999989715,-87.82152999980963,IL,7810 W ELMGROVE DR,60707
742,CORNER STONE EVANGEL FREE CHR,GLENVIEW,EVANGELICAL FREE CHURCH,42.05512999974974,-87.81198999963874,IL,2 SHERMER RD,60025
743,ST JEROME CROATIAN PARISH,CHICAGO,ROMAN CATHOLIC CHURCH,41.84214000006102,-87.63386000043863,IL,2823 S PRINCETON AVE,60616
744,WALLEN MASJID AND MADRASAH,CHICAGO, ,42.002430000344305,-87.67296000040363,IL,1709 W WALLEN AVE,60626
745,COVENANT FAITH CHURCH OF GOD,CHICAGO,CHURCH OF GOD IN CHRIST,41.702750000412266,-87.6423299998296,IL,10505 S HALSTED ST,60628
746,CALVIN CHRISTIAN CHURCH,OAK LAWN,CHRISTIAN REFORMED CHURCH,41.70881999974324,-87.76011999983808,IL,10056 CENTRAL AVE,60453
747,GREATER FIRST M B CHURCH,CHICAGO,NATIONAL BAPTIST CONVENTION-USA,41.89447000039024,-87.76629999974517,IL,751 N PARKSIDE AVE # 53,60644
748,GRACE PENTECOSTAL FOUR SQUARE,CHICAGO,INTERNATIONAL FOURSQUARE GOSPEL,41.941219999703264,-87.7048800002118,IL,3301 N ALBANY AVE,60618
749,FULLNESS PRESBYTERIAN CHURCH,CHICAGO,PRESBYTERIAN CHURCH (USA),41.95519000001855,-87.73232000026775,IL,4047 N KEELER AVE,60641
750,COPTIC ASSEMBLY OF AMERICA,WILMETTE,NON CLASSIFIED AFFILIATION,42.0692899998337,-87.70346999994052,IL,107 GREEN BAY RD,60091
751,CICERO HISPANIC SEVENTH-DAY,BERWYN,SEVENTH DAY ADVENTISTS,41.83033000042923,-87.79634000009088,IL,6916 34TH ST,60402
752,IGLESIA CRISTIANA EL HIJO PRDG,NILES,NON CLASSIFIED AFFILIATION,42.03981000013147,-87.80557999991703,IL,7144 W CAROL CT,60714
753,87TH STREET CHURCH OF CHRIST,CHICAGO,CHURCHES OF CHRIST (NON-INSTRUMENTAL),41.73537000012544,-87.6716599998091,IL,1935 W 87TH ST,60620
754,NEW COMMUNITY PRESBYTERIAN,CHICAGO,PRESBYTERIAN/REFORMED - OTHER,41.88637000007549,-87.64384999977761,IL,215 N DESPLAINES ST # 3N,60661
755,GREATER UNION BAPTIST CHURCH,CHICAGO,AMERICAN BAPTIST CHURCHES/USA,41.88253000015942,-87.67532000041763,IL,1956 W WARREN BLVD,60612
756,SALEM UNITED CHURCH OF CHRIST,OAK LAWN,UNITED CHURCH OF CHRIST,41.71601000036128,-87.73056999960573,IL,9717 S KOSTNER AVE,60453
757,NEW MORNING STAR MB CHURCH,CHICAGO,BAPTIST MISSIONARY ASSOCIATION OF AMERICA,41.87775000006252,-87.72111999998799,IL,210 S HAMLIN BLVD,60624
758,CHICAGO-N SPAULDING CHR OF GOD,CHICAGO,"CHURCH OF GOD (ANDERSON, IN)",41.91504999975774,-87.70978000044664,IL,1859 N SPAULDING AVE,60647
759,DAYSPRING BAPTIST CHURCH,CHICAGO,BAPTIST GENERAL CONFERENCE,41.9239999997003,-87.75447999965223,IL,5133 W FULLERTON AVE,60639
760,SAINT CONSTANCE CATHOLIC CHURCH,CHICAGO,ROMAN CATHOLIC CHURCH,41.969909999846664,-87.77468999994352,IL,5843 W STRONG ST,60630
761,BURNSIDE COMMUNITY BAPTIST CHR,CHICAGO,BAPTIST - OTHER,41.72814000036078,-87.60741999973317,IL,645 E 91ST PL,60619
762,FORRESTVILLE HYDE PARK SKYWAY,CHICAGO,JEHOVAH'S WITNESSES,41.80343999965629,-87.62410999957677,IL,5025 S WABASH AVE,60615
763,ST THOMAS OF CANTERBURY,CHICAGO,ROMAN CATHOLIC CHURCH,41.96963999998604,-87.6561100003762,IL,4827 N KENMORE AVE,60640
764,LAWNDALE CHURCH OF CHRIST,CHICAGO,CHURCHES OF CHRIST (NON-INSTRUMENTAL),41.84827000036029,-87.71699000018833,IL,2357 S LAWNDALE AVE,60623
765,GOLGOTHA CHURCH OF CHRIST,CHICAGO,UNITED CHURCH OF CHRIST,41.87364999984766,-87.75494999974268,IL,526 S LARAMIE AVE,60644
766,SAINT PASCAL CATHOLIC CHURCH,CHICAGO,ROMAN CATHOLIC CHURCH,41.95219999973028,-87.78148000010191,IL,3935 N MELVINA AVE,60634
767,FREE CHURCH,OAK PARK,EVANGELICAL - OTHER,41.89043000024435,-87.79410999977665,IL,200 N OAK PARK AVE,60302
768,CHICAGO UNITY SEVENTH-DAY,CHICAGO,SEVENTH DAY ADVENTISTS,41.97620999989164,-87.81551999964825,IL,7534 W BERWYN AVE,60656
769,SAINT EUGENE CATHOLIC CHURCH,CHICAGO,ROMAN CATHOLIC CHURCH,41.974620000312825,-87.82577000018534,IL,7958 W FOSTER AVE,60656
770,ST PAUL A M E CH,CHICAGO,AFRICAN METHODIST EPISCOPAL CHURCH,41.733480000201894,-87.54257999986709,IL,8911 S MACKINAW AVE,60617
771,ST MARGARET'S EPISCOPAL CHURCH,CHICAGO,EPISCOPAL CHURCH,41.762690000043506,-87.56258999992849,IL,2555 E 73RD ST,60649
772,AMBASSADOR'S FOR CHRIST CHURCH,CHICAGO,NON-DENOMINATIONAL CHURCHES,41.75090000043474,-87.66326000004892,IL,7859 S ASHLAND AVE,60620
773,LIBERTY TEMPLE FULL GOSPEL CHR,CHICAGO,CHRISTIAN - OTHER,41.75002000032282,-87.6787199998281,IL,2233 W 79TH ST,60620
774,SECOND FAITH TEMPLE CHR OF GOD,CHICAGO,CHURCH OF GOD IN CHRIST,41.80603999994611,-87.61517999965724,IL,424 E 49TH ST,60615
775,CAANAN MISSIONARY BAPTIST CHR,CHICAGO,BAPTIST MISSIONARY ASSOCIATION OF AMERICA,41.793350000202395,-87.66724999968773,IL,1701 W GARFIELD BLVD,60636
776,NEW MT SINAI MB CHURCH,CHICAGO,BAPTIST MISSIONARY ASSOCIATION OF AMERICA,41.88589999998504,-87.75562999962477,IL,310 N LARAMIE AVE,60644
777,GREATER ST JOHN BAPTIST CHURCH,CHICAGO,SOUTHERN BAPTIST CONVENTION,41.90369000019342,-87.76849000001346,IL,1256 N WALLER AVE,60651
778,ILLINOIS TENRIKYO CHURCH,CHICAGO,TENRIKYO CHURCHES,41.97362999962485,-87.72294000028074,IL,5057 N HAMLIN AVE,60625
779,KOREAN BETHANY PRESBYTERIAN,LINCOLNWOOD,PRESBYTERIAN CHURCH (USA),42.004140000061,-87.7460500003072,IL,4707 W PRATT AVE,60712
